[{"wUPHVWGmoBU_gykHl1Kzxg": {"review_count": 21, "name": "Joyful Chinese Dining", "longitude": -111.90429, "full_address": "9699 N Hayden Rd\nScottsdale, AZ 85258", "stars": 3.5, "latitude": 33.574508}, "rZbHg4ACfN3iShdsT47WKQ": {"review_count": 363, "name": "Bobby Q", "longitude": -112.1156244, "full_address": "8501 N 27th Ave\nPhoenix, AZ 85051", "stars": 4.5, "latitude": 33.5612589}, "S8O3BoCDEK-te8U-0IvZog": {"review_count": 131, "name": "Tommy V's Urban Kitchen & Bar", "longitude": -111.9241443, "full_address": "7303 E Indian School Rd\nScottsdale, AZ 85251", "stars": 4.5, "latitude": 33.4949678}, "TxDKDFQ3ovgzTaNcqKf2Uw": {"review_count": 36, "name": "Li's Bowl", "longitude": -112.1336153, "full_address": "6260 S 35th Ave\nPhoenix, AZ 85041", "stars": 4.0, "latitude": 33.3906697}, "OoHWabV-ym7_HWlHeXTsVA": {"review_count": 41, "name": "Best of Philly", "longitude": -112.074206, "full_address": "2818 N Central Ave\nPhoenix, AZ 85004", "stars": 4.0, "latitude": 33.479508}, "kEyCMHBnohaWc81omLDfYg": {"review_count": 66, "name": "Casella's Italian Delicatessen", "longitude": -111.9001502, "full_address": "5905 N Granite Reef Rd\nScottsdale, AZ 85250", "stars": 4.5, "latitude": 33.5227721}, "fLeTQHw7tdOmQ3v81_Y8og": {"review_count": 19, "name": "Pink Pony", "longitude": -111.9259858, "full_address": "3831 N Scottsdale Rd\nScottsdale, AZ 85251", "stars": 3.5, "latitude": 33.4925951}, "fXtPvVb8vbWvAa_mRjq2ig": {"review_count": 3, "name": "Daily Buffet", "longitude": -112.092068, "full_address": "1520 W Indian School Rd\nPhoenix, AZ 85015", "stars": 3.0, "latitude": 33.495304}, "4oBF6f3NiCYF5VYd8WaELw": {"review_count": 31, "name": "Silver Mine Subs", "longitude": -111.908305687358, "full_address": "3415 S McClintock Dr\nUnit 107\nTempe, AZ 85281", "stars": 3.0, "latitude": 33.3917177901471}, "tyHtzC4k-MvsTZOBZ8YaWw": {"review_count": 5, "name": "China House Buffet", "longitude": -112.092068, "full_address": "1520 W Indian School Rd\nPhoenix, AZ 85015", "stars": 2.5, "latitude": 33.495304}, "tdlSjsWl9PYEUBhDXkIvXQ": {"review_count": 7, "name": "Marston's Cafe", "longitude": -112.0731715, "full_address": "Wyndham Phoenix Downtown\n50 E Adams St\nPhoenix, AZ 85004", "stars": 4.0, "latitude": 33.4493333}, "Vm_P0F8OfpXlW1rw0eLoMQ": {"review_count": 9, "name": "Mandarin Buffet", "longitude": -111.9283256, "full_address": "7101 E McDowell Rd\nScottsdale, AZ 85257", "stars": 2.5, "latitude": 33.4656138}, "cfRrO0P-L7o6UWL81pmxCA": {"review_count": 37, "name": "Lo Cascio's Italian Restaurant", "longitude": -111.9266566, "full_address": "2210 N Scottsdale Rd\nTempe, AZ 85281", "stars": 3.5, "latitude": 33.4532027}, "PwxvN0SnAGPdqXdNEYVT3g": {"review_count": 202, "name": "Bliss ReBAR", "longitude": -112.068359, "full_address": "901 N 4th St\nPhoenix, AZ 85004", "stars": 4.0, "latitude": 33.457863}, "sb4wU69LkCtC6Axqcd34WQ": {"review_count": 214, "name": "Blanco", "longitude": -111.96828, "full_address": "6166 N Scottsdale Rd\nSte 601\nScottsdale, AZ 85253", "stars": 3.5, "latitude": 33.546}, "qecLHHzAwgkkeA1bG81vmw": {"review_count": 58, "name": "Marcella's Italian Kitchen", "longitude": -111.9296765, "full_address": "7014 E Camelback Rd\nSte 1423\nScottsdale, AZ 85251", "stars": 3.0, "latitude": 33.5025941}, "9tSHBEoAhKu-tkU8n6SKjA": {"review_count": 143, "name": "Los Dos Molinos", "longitude": -111.857263, "full_address": "260 S Alma School Rd\nSte 137\nMesa, AZ 85210", "stars": 4.0, "latitude": 33.409735}, "Zg-C1aYcoR2L5OIrA01MkQ": {"review_count": 110, "name": "Heart Attack Grill", "longitude": -111.947948, "full_address": "6185 W Chandler Blvd\nChandler, AZ 85226", "stars": 3.0, "latitude": 33.304775}, "a8yzGF79KcfyRye2R6wt3Q": {"review_count": 40, "name": "Golden Phoenix Chinese Restaurant", "longitude": -112.0476735, "full_address": "6048 N 16th St\nPhoenix, AZ 85016", "stars": 3.0, "latitude": 33.5248652}, "MpohnCC0uQNj7DZWaBFSgQ": {"review_count": 26, "name": "Five Guys Burgers and Fries", "longitude": -112.0745395, "full_address": "50 W Jefferson St\nSte 180\nPhoenix, AZ 85003", "stars": 3.5, "latitude": 33.4474542}, "Xq9tkiHhyN_aBFswFeGLvA": {"review_count": 321, "name": "The Arrogant Butcher", "longitude": -112.073781, "full_address": "2 E Jefferson St\nSte 150\nPhoenix, AZ 85004", "stars": 4.0, "latitude": 33.4471735}, "W7xb2iS4cYL14Yi5LOGSkA": {"review_count": 98, "name": "Bison Witches Bar & Deli", "longitude": -111.9381604, "full_address": "21 E 6th St\nSte 146\nTempe, AZ 85281", "stars": 3.5, "latitude": 33.4238102}, "JM6X0PJBcMkAjOuZqMaZsQ": {"review_count": 54, "name": "Fleming's Prime Steakhouse & Wine Bar", "longitude": -112.2691041, "full_address": "9712 W Northern Ave\nPeoria, AZ 85345", "stars": 4.5, "latitude": 33.5515097}, "9Qt1pt0pk2VWz0chdGk-jw": {"review_count": 99, "name": "Phoenix Palace", "longitude": -111.8764361, "full_address": "2075 N Dobson Rd\nChandler, AZ 85224", "stars": 4.0, "latitude": 33.3369531}, "xs1LHeJy78u-7taSEnQ2Yw": {"review_count": 156, "name": "Moira Sushi", "longitude": -112.0704276, "full_address": "215 E McKinley St\nSte 102\nPhoenix, AZ 85004", "stars": 3.5, "latitude": 33.4564268}, "9VZ_imQjvgtpt3k6W6AQ_A": {"review_count": 196, "name": "Stingray Sushi", "longitude": -111.9262675, "full_address": "4302 N Scottsdale Rd\nScottsdale, AZ 85250", "stars": 3.0, "latitude": 33.4986978}, "Ud6MAIcHxyao99gnGWqtnA": {"review_count": 9, "name": "McDonald's", "longitude": -111.9587963, "full_address": "1325 W Broadway Rd\nTempe, AZ 85282", "stars": 2.5, "latitude": 33.4070202}, "MAXKQMjuOQ17EAbKoTfUwQ": {"review_count": 23, "name": "Ichi Ban Japanese Restaurant", "longitude": -112.269802, "full_address": "9897 W McDowell Rd\nTolleson, AZ 85353", "stars": 2.0, "latitude": 33.464277}, "Fo5O94HccxE4PvMQf-G_vQ": {"review_count": 60, "name": "Pie Zanos Kitchen", "longitude": -112.168382, "full_address": "5060 W Bell Rd\nGlendale, AZ 85310", "stars": 3.5, "latitude": 33.639544}, "j5HLcBru7FEirYJPbKFVWA": {"review_count": 40, "name": "Breadcrafters Bakery & Cafe", "longitude": -111.9781795, "full_address": "12635 N Tatum Blvd\nPhoenix, AZ 85032", "stars": 3.5, "latitude": 33.6032634}, "ZlvVCqFKTMK4rBkTQzVBpA": {"review_count": 15, "name": "Jersey Mike's Subs", "longitude": -112.08241, "full_address": "1515 N 7th  Ave\nSte 140\nPhoenix, AZ 85003", "stars": 3.5, "latitude": 33.465504}, "k8JnZBspVOI8kLcQek-Chw": {"review_count": 130, "name": "Mamma Mia Subs & Brick Oven Pizza", "longitude": -111.9958183, "full_address": "3937 E Indian School Rd\nPhoenix, AZ 85018", "stars": 4.0, "latitude": 33.4950535}, "lvpXyfTDF5WZnjzc36r5Wg": {"review_count": 101, "name": "Lucky Boy Burger Shop", "longitude": -112.048021, "full_address": "3430 N 16th St\nPhoenix, AZ 85016", "stars": 4.0, "latitude": 33.487843}, "8PYmv83XaJTioz5_A-SVxA": {"review_count": 22, "name": "Asian Hong Kong", "longitude": -111.928947, "full_address": "9880 S Rural Rd\nTempe, AZ 85284", "stars": 4.0, "latitude": 33.321976}, "kqGbGsG2p6Y3vkplCKyE9g": {"review_count": 121, "name": "Habanero's Mexican Grill", "longitude": -111.899064353952, "full_address": "14780 N Northsight Blvd\nScottsdale, AZ 85260", "stars": 4.0, "latitude": 33.621274848681}, "f7Xe9Xzoafhi_EY4xwEpSw": {"review_count": 78, "name": "Miele's Italian Bistro", "longitude": -111.9095295, "full_address": "1835 E Guadalupe Rd\nSte D111\nTempe, AZ 85283", "stars": 4.0, "latitude": 33.3637746}, "ntJAKLAq0cXzzdFgPoo0Iw": {"review_count": 50, "name": "Harvey's Wineburger", "longitude": -112.0477237, "full_address": "4812 N 16th St\nPhoenix, AZ 85016", "stars": 3.5, "latitude": 33.5079352}, "6Tt0mGKbMoAz1GsjkVhbMQ": {"review_count": 73, "name": "The Original Burrito Co", "longitude": -111.9789093, "full_address": "4865 E Elliot Rd\nPhoenix, AZ 85044", "stars": 3.5, "latitude": 33.3488854}, "JuBygU4XDjqSeW9okyvbsQ": {"review_count": 165, "name": "The Coffee Shop", "longitude": -111.726244, "full_address": "3000 E Ray Rd\nGilbert, AZ 85296", "stars": 4.0, "latitude": 33.321864}, "MLVKDbuI2xaOJQ4-NZj2MQ": {"review_count": 102, "name": "Marcellino Ristorante", "longitude": -111.928258, "full_address": "7114 E Stetson Dr\nScottsdale, AZ 85251", "stars": 4.0, "latitude": 33.498915}, "byFWmwlVSmUj-AmM6NZYvw": {"review_count": 37, "name": "In-N-Out Burger", "longitude": -111.9746066, "full_address": "21001 N Tatum Blvd\nPhoenix, AZ 85050", "stars": 4.0, "latitude": 33.678615}, "rQ4z0EStSZE4acgkne6Hmg": {"review_count": 227, "name": "Tuck Shop", "longitude": -112.056065, "full_address": "2245 N 12th St\nPhoenix, AZ 85006", "stars": 4.5, "latitude": 33.472853}, "8t80-omyflkywRfu9LPh6g": {"review_count": 194, "name": "Wildfish Seafood Grille", "longitude": -111.928035020828, "full_address": "7135 E Camelback  Rd\nSte 130\nScottsdale, AZ 85250", "stars": 4.0, "latitude": 33.5020036165904}, "xY1sPHTA2RGVFlh5tZhs9g": {"review_count": 412, "name": "Culinary Dropout", "longitude": -111.9276185, "full_address": "7135 E Camelback Rd\nSte 125\nScottsdale, AZ 85251", "stars": 3.5, "latitude": 33.5019817}, "Cr2JNnewX53TYd9w6qw6Jw": {"review_count": 46, "name": "The Habit Burger Grill", "longitude": -111.969608, "full_address": "960 N 54th St\nChandler, AZ 85226", "stars": 3.5, "latitude": 33.318913}, "ib-y5nsfn3unE0lLY1vfAw": {"review_count": 94, "name": "Arriba Mexican Grill", "longitude": -112.042514, "full_address": "1812 E Camelback Rd\nPhoenix, AZ 85016", "stars": 3.5, "latitude": 33.509702}, "9BH18avE46LlHMvJn67MaA": {"review_count": 33, "name": "The Downtown Deli", "longitude": -112.0739944, "full_address": "130 N Central Ave\nPhoenix, AZ 85004", "stars": 3.5, "latitude": 33.4500539}, "QMsUey4Xi1VfHkwbI8YxdQ": {"review_count": 32, "name": "Hana Sushi", "longitude": -112.081705, "full_address": "602 W Union Hills Dr\nPhoenix, AZ 85027", "stars": 4.0, "latitude": 33.655105}, "PZv6SPORD9ivj4jwKvGgjQ": {"review_count": 74, "name": "Spinato's Pizza", "longitude": -111.83645015013, "full_address": "11108 N Frank Lloyd Wright B\nScottsdale, AZ 85259", "stars": 4.0, "latitude": 33.586656564995}, "NDHhzgMrTzr_38md_R5WKw": {"review_count": 29, "name": "Sweet Tomatoes", "longitude": -111.983342170715, "full_address": "4723 E. Ray Road\nPhoenix, AZ 85044", "stars": 3.5, "latitude": 33.3194479164846}, "DcrM4hwDcU2G6vuh2cnaYQ": {"review_count": 269, "name": "NOCA", "longitude": -112.0152845, "full_address": "3118 E Camelback Rd\nPhoenix, AZ 85016", "stars": 4.0, "latitude": 33.5100097}, "-UT6IHfVW_2yzz1bf8WI5g": {"review_count": 29, "name": "Tediberto's", "longitude": -112.0722742, "full_address": "110 E Roosevelt Ave\nSte C\nPhoenix, AZ 85004", "stars": 3.5, "latitude": 33.4587811}, "PJEJS5rNMRrIBVQDuU9qoA": {"review_count": 48, "name": "Little Chicago Pizza", "longitude": -111.9089192, "full_address": "3213 N Hayden Rd\nScottsdale, AZ 85251", "stars": 4.5, "latitude": 33.4861506}, "n0OIZOmu5rOWSJ0-l4b6mw": {"review_count": 13, "name": "Red Rock Buffet", "longitude": -111.6787751, "full_address": "10424 N Fort McDowell Rd\nFort McDowell, AZ 85264", "stars": 3.0, "latitude": 33.5824603}, "WwTK9w1qu4h28a63gFz25A": {"review_count": 23, "name": "Meritage Steakhouse", "longitude": -111.966112, "full_address": "JW Marriott Desert Ridge\n5350 E Marriott Dr\nPhoenix, AZ 85054", "stars": 3.5, "latitude": 33.683479}, "3n9mSKySEv3G03YjcU-YOQ": {"review_count": 402, "name": "Postino Central", "longitude": -112.0740123, "full_address": "5144 N Central Ave\nPhoenix, AZ 85012", "stars": 4.5, "latitude": 33.5127699}, "F-ZOeAK1v7e5Rt2Mv5rVMw": {"review_count": 139, "name": "Echo Coffee", "longitude": -111.9347763, "full_address": "2902 N 68th St\nSte 135\nScottsdale, AZ 85251", "stars": 4.0, "latitude": 33.4803679}, "BPi1Q5wX0_o5VlO_XRyYuQ": {"review_count": 74, "name": "Italian Restaurant", "longitude": -112.0366323, "full_address": "4743 N 20th St\nPhoenix, AZ 85016", "stars": 3.5, "latitude": 33.507425}, "NQhPkGeHiljeg7tXPTHJeA": {"review_count": 29, "name": "Sweet Tomatoes", "longitude": -112.1164816, "full_address": "10046 North 26th Drive\nPhoenix, AZ 85021", "stars": 3.5, "latitude": 33.5778831}, "qjmCVYkwP-HDa35jwYucbQ": {"review_count": 434, "name": "True Food Kitchen", "longitude": -112.0272041, "full_address": "2502 E Camelback Rd\nPhoenix, AZ 85016", "stars": 4.0, "latitude": 33.5102068}, "QbqJEXdngh_9fwqVTI0CJQ": {"review_count": 91, "name": "Patsy Grimaldi's Pizzeria", "longitude": -111.860733, "full_address": "1035 W Queen Creek Rd\nChandler, AZ 85248", "stars": 4.0, "latitude": 33.261657}, "UmhTiNOKareQDP7D9aAnKw": {"review_count": 64, "name": "T. Roosevelt's Tavern", "longitude": -111.9302928, "full_address": "4175 N Goldwater Blvd\nScottsdale, AZ 85251", "stars": 4.0, "latitude": 33.4960515}, "qiFTZ7aJz-FXt1wz8YigAA": {"review_count": 93, "name": "El Hefe", "longitude": -111.921935, "full_address": "4425 N Saddlebag Trl\nScottsdale, AZ 85251", "stars": 3.5, "latitude": 33.50123}, "h6jfMpTZpNduLG0wE2tbaw": {"review_count": 199, "name": "Hana Japanese Eatery", "longitude": -112.0824683, "full_address": "5524 N 7th Ave\nPhoenix, AZ 85013", "stars": 4.0, "latitude": 33.5173991}, "jEWfxxA_kjeJE_Z_ku3zLA": {"review_count": 145, "name": "RA Sushi Bar Restaurant", "longitude": -111.939838, "full_address": "411 S Mill Ave\nSte 103\nTempe, AZ 85281", "stars": 2.5, "latitude": 33.4261603}, "uR2aNW75R4oYs9w7aw-_kQ": {"review_count": 235, "name": "Sapporo", "longitude": -111.92631, "full_address": "14344 N Scottsdale Rd\nScottsdale, AZ 85254", "stars": 3.5, "latitude": 33.616418}, "f9eFteZuBoZqzYg5UUrufw": {"review_count": 32, "name": "Lollicup Coffee & Tea", "longitude": -111.8589887, "full_address": "2050 N Alma School Rd\nChandler, AZ 85224", "stars": 3.5, "latitude": 33.3366819}, "lLU7Q9fWurssDHHFUAxmxg": {"review_count": 31, "name": "Lukes Of Chicago", "longitude": -111.8904419, "full_address": "2855 W Ray Rd\nChandler, AZ 85224", "stars": 3.5, "latitude": 33.3203054}, "tr4L9VWmPGZtdBD-L2Pofw": {"review_count": 77, "name": "Smashburger", "longitude": -112.273257, "full_address": "9915 W McDowell Rd\nSte 101\nAvondale, AZ 85392", "stars": 4.0, "latitude": 33.4641}, "4zfrcEmGvZ4oYKx_revTxA": {"review_count": 74, "name": "Pho Chandler", "longitude": -111.8412137, "full_address": "4055 S Arizona Ave\nSte 8\nChandler, AZ 85248", "stars": 4.0, "latitude": 33.2587342}, "jqZKv-7F54guDLalXEjHxg": {"review_count": 69, "name": "Five Guys Burgers and Fries", "longitude": -111.9254565, "full_address": "15435 N Scottsdale Rd\nSte 100\nScottsdale, AZ 85260", "stars": 3.5, "latitude": 33.6265775}, "GlfwqH2dY3MKxrRirKeueg": {"review_count": 38, "name": "Romano's Macaroni Grill", "longitude": -111.925315, "full_address": "7245 E. Gold Dust\nScottsdale, AZ 85258", "stars": 3.0, "latitude": 33.5779349}, "ML1RJdeZ7bbfMrHvJ7m99A": {"review_count": 185, "name": "Oregano's Pizza Bistro", "longitude": -112.060185, "full_address": "1008 E Camelback Rd\nPhoenix, AZ 85014", "stars": 4.0, "latitude": 33.509578}, "Oj79-vTnjQk_jLr6oNbT0Q": {"review_count": 87, "name": "Chloe's Corner", "longitude": -111.927910236417, "full_address": "15215 N Kierland Blvd\nSte 190\nScottsdale, AZ 85254", "stars": 4.0, "latitude": 33.6244671692423}, "uVbt9dOe6qJgBBI4_XsXRA": {"review_count": 54, "name": "Fleming's Prime Steakhouse & Wine Bar", "longitude": -111.8894434, "full_address": "20753 N Pima Rd\nDC Ranch\nNorth Scottsdale, AZ 85255", "stars": 4.0, "latitude": 33.6744167}, "eHC_xNrT1SkJyC2oncJlhw": {"review_count": 62, "name": "Asi Es La Vida", "longitude": -112.030564, "full_address": "3602 N 24th St\nPhoenix, AZ 85016", "stars": 4.0, "latitude": 33.489522}, "CFaRVxsnN4Zjf28cbORKIA": {"review_count": 100, "name": "Via Delosantos", "longitude": -112.0740526, "full_address": "9120 N Central Ave\nPhoenix, AZ 85020", "stars": 3.5, "latitude": 33.5693997}, "863nEWkPZ7uD-ZRTmmJokw": {"review_count": 50, "name": "La Torretta Ristorante", "longitude": -111.926212, "full_address": "16640 N Scottsdale Rd\nScottsdale, AZ 85254", "stars": 3.5, "latitude": 33.637775}, "0QTn4pMzKv1mnQifcP9YoQ": {"review_count": 72, "name": "Autumn Court Chinese Restaurant", "longitude": -112.0001334, "full_address": "3752 E Indian School Rd\nPhoenix, AZ 85018", "stars": 3.5, "latitude": 33.4953013}, "9XX-sxaDFXlXO65WnuS65Q": {"review_count": 59, "name": "Riazzi's Italian Garden", "longitude": -111.939886, "full_address": "2700 S Mill Ave\nTempe, AZ 85282", "stars": 3.5, "latitude": 33.399991}, "MuIXnv7Oq7X3-4aEsp9dDA": {"review_count": 347, "name": "Citizen Public House", "longitude": -111.927951, "full_address": "7111 E 5th Ave\nSte E\nScottsdale, AZ 85251", "stars": 4.5, "latitude": 33.498028}, "iNvY0zAlaD_ye7Z6rHu-Ug": {"review_count": 153, "name": "Chicago Hamburger Co", "longitude": -111.999963, "full_address": "3749 E Indian School Rd\nPhoenix, AZ 85018", "stars": 4.0, "latitude": 33.495084}, "M6fjHpkL9IRI-nI0BattRw": {"review_count": 238, "name": "The Main Ingredient Ale House And Caf\u00e9", "longitude": -112.065107, "full_address": "2337 N 7th St\nPhoenix, AZ 85006", "stars": 4.0, "latitude": 33.474605}, "hzHyNCc3WijMVOzPcCuRJg": {"review_count": 39, "name": "Caffe Boa Bistro", "longitude": -111.703265, "full_address": "2837 N Power Rd\nSte 102\nMesa, AZ 85215", "stars": 3.5, "latitude": 33.468577}, "yGmdo1ENajB98iryHGoWFw": {"review_count": 77, "name": "Monkey Pants Bar & Grill", "longitude": -111.9394645, "full_address": "3223 S Mill Ave\nTempe, AZ 85281", "stars": 3.5, "latitude": 33.3941258}, "NFoVdVCLmJ4InK4g6GYgKQ": {"review_count": 39, "name": "Captain Bill's Subs", "longitude": -112.1339119, "full_address": "10645 N 35th Ave\nPhoenix, AZ 85029", "stars": 4.0, "latitude": 33.5836899}, "1NZLxU5WvB5roPFzneAlLw": {"review_count": 398, "name": "Barrio Caf\u00e9", "longitude": -112.0478085, "full_address": "2814 N 16th St\nPhoenix, AZ 85006", "stars": 4.0, "latitude": 33.4787943}, "L9UYbtAUOcfTgZFimehlXw": {"review_count": 390, "name": "Liberty Market", "longitude": -111.7897898, "full_address": "230 N Gilbert Rd\nGilbert, AZ 85234", "stars": 4.5, "latitude": 33.3547012}, "JgR9549t1KZJMFPgTtSCbA": {"review_count": 16, "name": "Souper Salad", "longitude": -112.1175302, "full_address": "10005 N Metro Pkwy E\nPhoenix, AZ 85051", "stars": 3.5, "latitude": 33.5762776}, "stH6XAn2Drzol1H5oGvL2A": {"review_count": 43, "name": "Jade Palace", "longitude": -111.9252984, "full_address": "23623 N Scottsdale Rd\nScottsdale, AZ 85255", "stars": 4.0, "latitude": 33.7019056}, "Zh_y9AmSfWZpR2JB9wye-A": {"review_count": 221, "name": "True Food Kitchen", "longitude": -111.9255304, "full_address": "15191 N Scottsdale Rd\nSte 100\nScottsdale, AZ 85260", "stars": 4.0, "latitude": 33.6239149}, "c2_iUhnFqctffbBCSVMEbQ": {"review_count": 33, "name": "Graziano's Pizzeria", "longitude": -112.185076, "full_address": "20329 N 59th Ave\nSte A9\nGlendale, AZ 85308", "stars": 3.0, "latitude": 33.671403}, "s8cHXeSlX_aPI2x49UkCCg": {"review_count": 97, "name": "Si Se\u00f1or Restaurant", "longitude": -111.859677, "full_address": "600 N Alma School Rd\nChandler, AZ 85224", "stars": 4.0, "latitude": 33.313774}, "pF7uRzygyZsltbmVpjIyvw": {"review_count": 105, "name": "Spinato's Pizza", "longitude": -112.0474847, "full_address": "1614 E Bell Rd\nPhoenix, AZ 85022", "stars": 4.5, "latitude": 33.6405893}, "s1dex3Z3QoqiK7V-zXUgAw": {"review_count": 246, "name": "5th and Wine", "longitude": -111.929223, "full_address": "7051 E 5th Ave\nScottsdale, AZ 85251", "stars": 4.0, "latitude": 33.497568}, "kr3EFhoSwbJPrL_e_RD39g": {"review_count": 80, "name": "Blue Hound Kitchen & Cocktails", "longitude": -112.073781, "full_address": "2 E Jefferson St\nPhoenix, AZ 85004", "stars": 3.5, "latitude": 33.4471735}, "TuuENwzxOFdDLY_oKCbFZw": {"review_count": 110, "name": "The Deli", "longitude": -111.67526753516, "full_address": "18914 E San Tan Blvd\nQueen Creek, AZ 85242", "stars": 4.5, "latitude": 33.2125748081159}, "r-a-Cn9hxdEnYTtVTB5bMQ": {"review_count": 229, "name": "The Grind", "longitude": -111.9957399, "full_address": "3961 E Camelback Rd\nPhoenix, AZ 85018", "stars": 3.5, "latitude": 33.5097768}, "5jazn-RZP2R6ZkCIPZsf0w": {"review_count": 35, "name": "Sweet Tomatoes", "longitude": -111.9746066, "full_address": "21001 North Tatum Blvd.\n#93\nPhoenix, AZ 85050", "stars": 4.0, "latitude": 33.678615}, "Lvf3N3cfLAmOc5y8Eg8KDg": {"review_count": 83, "name": "Takamatsu Of Chandler", "longitude": -111.84303, "full_address": "3002 N Arizona Ave\nChandler, AZ 85225", "stars": 4.0, "latitude": 33.351089}, "_BhzcKojv1gjdRINe3Gkig": {"review_count": 27, "name": "Morton's The Steakhouse", "longitude": -112.0273984, "full_address": "The Shops at the Esplanade\n2501 E. Camelback Rd.\nPhoenix, AZ 85016", "stars": 4.0, "latitude": 33.5093706}, "I2_yeLfTzXHGwi8an0tL4w": {"review_count": 47, "name": "Jolta Java", "longitude": -111.926272, "full_address": "14418 N Scottsdale Rd\nScottsdale, AZ 85254", "stars": 4.0, "latitude": 33.6174589}, "STv-ED3M2xmRFMSvQbWGaw": {"review_count": 74, "name": "Capriotti's Sandwich Shop", "longitude": -111.9777693, "full_address": "4929 E Chandler Blvd\nPhoenix, AZ 85048", "stars": 4.0, "latitude": 33.3046962}, "MhkZLdUFaHt5SDcQcqOWQg": {"review_count": 71, "name": "Fresh Wasabi Sushi & Grill", "longitude": -112.3553813, "full_address": "13732 W Bell Rd\nSte 2\nSurprise, AZ 85374", "stars": 3.5, "latitude": 33.638937}, "R6aazv8FB-6BeanY3ag8kw": {"review_count": 133, "name": "MacAlpine's Soda Fountain", "longitude": -112.0649453, "full_address": "2303 N 7th St\nPhoenix, AZ 85006", "stars": 3.5, "latitude": 33.4732683}, "H7KzlC0-o1wIhlGg-Me5Ag": {"review_count": 106, "name": "Flo's Asian Kitchen", "longitude": -111.9213957, "full_address": "16495 N Scottsdale Rd\nScottsdale, AZ 85254", "stars": 3.5, "latitude": 33.6363383}, "ZhMlXLXuZf5z7lxunHk2ww": {"review_count": 71, "name": "Eddie V's Prime Seafood", "longitude": -111.9255108, "full_address": "15323 N Scottsdale Rd\nSte E1-160\nScottsdale, AZ 85260", "stars": 4.0, "latitude": 33.6251838}, "DHk8is9rvfnATsW1AudWQg": {"review_count": 113, "name": "Santisi Brothers - Pizzeria & Sports Grill", "longitude": -112.1201999, "full_address": "2710 W Bell Rd\nSte 1115\nPhoenix, AZ 85053", "stars": 4.0, "latitude": 33.6400995}, "RQWliUrWic_b5FZEj3JThQ": {"review_count": 129, "name": "RigaTony's", "longitude": -111.9080449, "full_address": "1850 E Warner Rd\nTempe, AZ 85284", "stars": 4.0, "latitude": 33.3359104}, "VYUfIfAlU1KuYGC6ITRY3A": {"review_count": 96, "name": "Blue Wasabi Sushi & Martini Bar", "longitude": -111.74430125426, "full_address": "2080 E Williams Field Rd\nGilbert, AZ 85296", "stars": 3.5, "latitude": 33.307983735825}, "EC9WB-iVjd28B6R6KIZ8TA": {"review_count": 196, "name": "Teharu Sushi", "longitude": -111.9626175, "full_address": "9845 S Priest Dr\nTempe, AZ 85284", "stars": 3.5, "latitude": 33.3216034}, "r2S4arkHyRcUroRhggMIoA": {"review_count": 95, "name": "Revo Burrito", "longitude": -112.0143931, "full_address": "3154 E Camelback Rd\nPhoenix, AZ 85016", "stars": 3.5, "latitude": 33.5100571}, "VEDXuvU1gZy3PqD9q32uwQ": {"review_count": 9, "name": "King Wah Express", "longitude": -112.152171, "full_address": "4306 W Northern Ave\nSte C\nGlendale, AZ 85301", "stars": 3.0, "latitude": 33.554038}, "fowXs9zAM0TQhSfSkPeVuw": {"review_count": 126, "name": "Flo's Chinese Restaurant", "longitude": -111.875449, "full_address": "15027 N Thompson Peak Parkway\nScottsdale, AZ 85260", "stars": 3.5, "latitude": 33.623019}, "RLjA7TBXJfyqDfPuVCcrtQ": {"review_count": 61, "name": "Prado", "longitude": -111.9641728, "full_address": "Montelucia Resort & Spa\n4949 E Lincoln Dr\nParadise Valley, AZ 85253", "stars": 3.5, "latitude": 33.5388471}, "V1nEpIRmEa1768oj_tuxeQ": {"review_count": 594, "name": "Cibo", "longitude": -112.0800705, "full_address": "603 N 5th Ave\nPhoenix, AZ 85003", "stars": 4.5, "latitude": 33.4548476}, "LRuIY8JFqadCSYLo242MGg": {"review_count": 53, "name": "The Hero Factory", "longitude": -112.075503, "full_address": "114 W Adams St\n102\nPhoenix, AZ 85003", "stars": 4.0, "latitude": 33.449553}, "DE8UVNCCpOE0vTAbGaMoeQ": {"review_count": 57, "name": "Romanelli's Deli & Bakery", "longitude": -112.133347, "full_address": "3437 W Dunlap Ave\nPhoenix, AZ 85051", "stars": 4.5, "latitude": 33.56721}, "Zruvunhqw7cuyuoe7g09Gw": {"review_count": 54, "name": "Picazzo's Organic Italian Kitchen", "longitude": -111.9813513, "full_address": "4669 E. Cactus\nPhoenix, AZ 85032", "stars": 3.5, "latitude": 33.597361}, "vfLog2bLJGl6hAFtGtr0GQ": {"review_count": 67, "name": "The Strand", "longitude": -112.073781, "full_address": "2 E Jefferson St\nSte 113\nPhoenix, AZ 85004", "stars": 4.0, "latitude": 33.4471735}, "MPziC5MO2QQiYVAMM3fdSw": {"review_count": 42, "name": "La Fontanella Restaurant", "longitude": -111.98959, "full_address": "4231 E Indian School Rd\nPhoenix, AZ 85018", "stars": 4.0, "latitude": 33.4949597}, "jgWAgT7LWPTf5wju9Q-kiw": {"review_count": 51, "name": "Chou's Kitchen", "longitude": -111.8592461, "full_address": "910 N Alma School Rd\nChandler, AZ 85224", "stars": 4.5, "latitude": 33.3195828}, "mQfT3JYu18HN22DVylcE7A": {"review_count": 135, "name": "Bertha's Caf\u00e9", "longitude": -112.0142961, "full_address": "3134 E Indian School Rd\nPhoenix, AZ 85018", "stars": 4.5, "latitude": 33.4952045}, "_L9E4eZWX0vdePNjU1xtuQ": {"review_count": 48, "name": "Toyama", "longitude": -111.924054, "full_address": "23415 N Scottsdale Rd\nSte 105\nScottsdale, AZ 85255", "stars": 4.5, "latitude": 33.701112}, "zruUQvFySeXyEd7_rQixBg": {"review_count": 162, "name": "U.S. Egg", "longitude": -111.9264164, "full_address": "3238 N Scottsdale Rd\nScottsdale, AZ 85251", "stars": 4.0, "latitude": 33.4860023}, "UI5ghIUeHYxzwSfaDVUXOA": {"review_count": 125, "name": "Aiello's", "longitude": -112.073765, "full_address": "5202 N Central Ave\nPhoenix, AZ 85012", "stars": 4.0, "latitude": 33.51315}, "On_3zLdujQdvDbBYUirNWw": {"review_count": 54, "name": "Taggia", "longitude": -111.925004124641, "full_address": "4925 N Scottsdale Rd\nScottsdale, AZ 85251", "stars": 4.0, "latitude": 33.5088652465793}, "Ew6YfU0XcFGM-S4zncZ5Dg": {"review_count": 52, "name": "India Garden", "longitude": -112.3408385, "full_address": "1809 N Dysart Rd\nSte C106\nAvondale, AZ 85392", "stars": 4.0, "latitude": 33.4667074}, "ckZVnb6gF3PPVWkoVhAiEw": {"review_count": 24, "name": "Hibachi Grill & Supreme Buffet", "longitude": -112.0824895, "full_address": "620 W Osborn Rd\nPhoenix, AZ 85013", "stars": 3.0, "latitude": 33.4876029}, "QdbZyl-LWFS54u93Vjd5SA": {"review_count": 103, "name": "The Capital Grille", "longitude": -112.0272041, "full_address": "2502 E Camelback Rd\nPhoenix, AZ 85016", "stars": 4.0, "latitude": 33.5102068}, "9VYZA4vEKtT_SXHj-ZK_1Q": {"review_count": 92, "name": "Dozo", "longitude": -111.9177014, "full_address": "4320 N Miller Rd\nScottsdale, AZ 85251", "stars": 4.0, "latitude": 33.499236}, "eJpr6Ks8pr4bmvDVPTN-Xg": {"review_count": 77, "name": "Vermont Sandwich Company", "longitude": -111.890093032168, "full_address": "8880 E Via Linda\nSte 104\nScottsdale, AZ 85258", "stars": 4.5, "latitude": 33.5690606322968}, "glalhJa7wFWPIoJLBvKGfQ": {"review_count": 58, "name": "The Original Garcia's", "longitude": -112.1345686, "full_address": "2212 N 35th Ave\nPhoenix, AZ 85009", "stars": 4.0, "latitude": 33.4724491}, "5BnsHDWrt2z-9d8AzSgkjw": {"review_count": 55, "name": "Nick's", "longitude": -111.9788671, "full_address": "10810 N Tatum Blvd\nPhoenix, AZ 85028", "stars": 3.5, "latitude": 33.5839581}, "-tBiXT917wKlr6n9wSqViw": {"review_count": 68, "name": "The Keg Steakhouse & Bar", "longitude": -111.74171169729, "full_address": "2240 E Williams Field Rd\nGilbert, AZ 85295", "stars": 3.5, "latitude": 33.307325126378}, "dec2TzjQ1skgmugHKJyLwQ": {"review_count": 27, "name": "In N Out Burger", "longitude": -112.1207132, "full_address": "2770 W Peoria Ave\nPhoenix, AZ 85029", "stars": 4.0, "latitude": 33.5820359}, "2e4LeI46Mo9YF24RnnJadQ": {"review_count": 45, "name": "Smashburger", "longitude": -112.1848981, "full_address": "5870 W Thunderbird Rd\nGlendale, AZ 85306", "stars": 3.5, "latitude": 33.6107777}, "RbWAL8KYgUp9pNSeLSjXtQ": {"review_count": 36, "name": "Sweet Tomatoes", "longitude": -111.8880186, "full_address": "9029 E. Indian Bend Rd.\nScottsdale, AZ 85250", "stars": 4.0, "latitude": 33.5380221}, "hoDG7g0Qxqje0dP_7MqpHQ": {"review_count": 70, "name": "La Stalla Cucina Rustica", "longitude": -111.8423994, "full_address": "68 W Buffalo St\nChandler, AZ 85225", "stars": 4.0, "latitude": 33.3046998}, "w19cemjVR8u02PgjFpJ7Mw": {"review_count": 197, "name": "Pita Jungle", "longitude": -111.9884173, "full_address": "4340 E. Indian School Rd.\nPhoenix, AZ 85018", "stars": 4.0, "latitude": 33.4952769}, "zmFc8M-hS4uuyY0hklIpoQ": {"review_count": 203, "name": "Carly's Bistro", "longitude": -112.0715044, "full_address": "128 E Roosevelt St\nPhoenix, AZ 85004", "stars": 3.5, "latitude": 33.4587919}, "odhXwWaYZvD_icIN6f_DbA": {"review_count": 61, "name": "Athenian Express", "longitude": -112.0740241, "full_address": "814 N Central Ave\nPhoenix, AZ 85004", "stars": 3.5, "latitude": 33.4574932}, "hWhVP-28LYP3llaMlAJ_JA": {"review_count": 83, "name": "Rosita's Place", "longitude": -112.0323598, "full_address": "2310 E McDowell Rd\nPhoenix, AZ 85006", "stars": 4.0, "latitude": 33.4657898}, "wZwZcte4lcbu51NOzCjWbQ": {"review_count": 176, "name": "Rustler's Rooste", "longitude": -111.9741847, "full_address": "8383 S 48th St\nPhoenix, AZ 85044", "stars": 3.5, "latitude": 33.3702541}, "Exx5ffvnmk4MrTyCkPRuug": {"review_count": 146, "name": "Los Olivos", "longitude": -111.923427, "full_address": "7328 E 2nd St\nScottsdale, AZ 85251", "stars": 3.0, "latitude": 33.491546}, "X-dpycbo5fy8AyoHCUCryA": {"review_count": 41, "name": "Freddy's Frozen Custard & Steakburgers", "longitude": -111.7872566, "full_address": "2065 Baseline Rd\nGilbert, AZ 85234", "stars": 4.0, "latitude": 33.3785426}, "VSPuvNSDUvlTl670lVAkkw": {"review_count": 49, "name": "Il Bosco Pizza", "longitude": -111.927321, "full_address": "7120 E Becker Ln\nScottsdale, AZ 85254", "stars": 5.0, "latitude": 33.583142}, "fF6m3qsD5blnwuZRuYhzWg": {"review_count": 193, "name": "Frank & Lupe's Old Mexico", "longitude": -111.928554, "full_address": "4121 N Marshall Wy\nScottsdale, AZ 85251", "stars": 3.0, "latitude": 33.495263}, "48GT-uIRnHp3rHvdRsgC_Q": {"review_count": 56, "name": "Digestif", "longitude": -111.927402, "full_address": "7133 E Stetson Dr\nScottsdale, AZ 85250", "stars": 3.5, "latitude": 33.499499}, "LMG0zsAkUSscIvmV9vvm3A": {"review_count": 163, "name": "Oregano's Pizza Bistro", "longitude": -111.925123, "full_address": "7215 E Shea Blvd\nScottsdale, AZ 85260", "stars": 4.0, "latitude": 33.581877}, "hBHkHYOk_E-6EgObC6MTdQ": {"review_count": 52, "name": "The Farm Kitchen", "longitude": -112.012504, "full_address": "6106 S 32nd St\nPhoenix, AZ 85042", "stars": 4.0, "latitude": 33.390792}, "r3r_bAfa6pZKIhQB82FizQ": {"review_count": 113, "name": "PastaBAR", "longitude": -112.072167, "full_address": "705 N 1st St\nPhoenix, AZ 85004", "stars": 3.5, "latitude": 33.455863}, "WixkMVXXFCx-lYsr6JoF6Q": {"review_count": 38, "name": "Pei Wei Asian Diner", "longitude": -111.9656825, "full_address": "7131 W Ray Rd\nChandler, AZ 85226", "stars": 3.5, "latitude": 33.3184617}, "LHzVPddSPzMECho55zCf0Q": {"review_count": 156, "name": "The Gelato Spot", "longitude": -111.926503, "full_address": "4166 N Scottsdale Rd\nScottsdale, AZ 85251", "stars": 4.5, "latitude": 33.496647}, "zp713qNhx8d9KCJJnrw1xA": {"review_count": 307, "name": "La Condesa Gourmet Taco Shop", "longitude": -112.0475116, "full_address": "1919 N 16th St\nPhoenix, AZ 85006", "stars": 4.0, "latitude": 33.4691316}, "AaKlegu7gmOCD4rEESF76Q": {"review_count": 258, "name": "Maizie's Cafe & Bistro", "longitude": -112.0744706, "full_address": "4750 N Central Ave\nPhoenix, AZ 85012", "stars": 4.0, "latitude": 33.5071469}, "7SO_rX1F6rQEl-5s3wZxgQ": {"review_count": 292, "name": "La Grande Orange Pizzeria", "longitude": -111.9955012, "full_address": "4410 N 40th St\nPhoenix, AZ 85018", "stars": 4.5, "latitude": 33.5024095}, "1OA1jo0GlK9sf68f00w8ZQ": {"review_count": 137, "name": "In-N-Out Burger", "longitude": -111.9248982, "full_address": "920 E Playa Del Norte\nTempe, AZ 85281", "stars": 4.0, "latitude": 33.4352894}, "jCOTob1avPH52RNuniylkg": {"review_count": 95, "name": "Abuelo's", "longitude": -111.9019797, "full_address": "3440 W Chandler Blvd\nChandler, AZ 85226", "stars": 3.5, "latitude": 33.3059393}, "qak_x5J-ntcT2iOdJoS60A": {"review_count": 45, "name": "Oriental Garden Super Buffet", "longitude": -111.8894906, "full_address": "8909 E Indian Bend Rd\nScottsdale, AZ 85250", "stars": 3.5, "latitude": 33.5382049}, "yTFdhqH9eLzaP05xXQa2rw": {"review_count": 69, "name": "Firehouse Subs", "longitude": -111.8977616, "full_address": "3245 W. Ray Rd.\nSte 1\nChandler, AZ 85226", "stars": 4.0, "latitude": 33.3201271}, "E3RjJH45EX6rHYDs0TYSRA": {"review_count": 90, "name": "Valle Luna", "longitude": -112.1310388, "full_address": "3336 W Bell Rd\nPhoenix, AZ 85053", "stars": 3.5, "latitude": 33.6397311}, "ss5gVggeSmAgMUeL65UvYw": {"review_count": 121, "name": "Postino East", "longitude": -111.7897347, "full_address": "302 N Gilbert Rd\nGilbert, AZ 85234", "stars": 4.0, "latitude": 33.3549553}, "2OY8xs4aqOt8eTnYokdrww": {"review_count": 169, "name": "Elements", "longitude": -111.9595033, "full_address": "5700 E McDonald Dr\nParadise Valley, AZ 85253", "stars": 4.0, "latitude": 33.5222185}, "eIxSLxzIlfExI6vgAbn2JA": {"review_count": 181, "name": "Lobbys Beef Burgers Dogs", "longitude": -111.9088938, "full_address": "3141 S McClintock Dr\nSte 13\nTempe, AZ 85282", "stars": 4.5, "latitude": 33.3947699}, "2rMf09C5uXzF2qIlD5F5BA": {"review_count": 80, "name": "Secreto", "longitude": -111.991311, "full_address": "4232 E Chandler Blvd\nSte 24\nPhoenix, AZ 85048", "stars": 3.5, "latitude": 33.305824}, "B5hhRbxDIADG-bFaQIEWag": {"review_count": 28, "name": "New Asian Kitchen", "longitude": -112.1505589, "full_address": "4231 W Bell Road\nPhoenix, AZ 85053", "stars": 3.5, "latitude": 33.6391352}, "KBG28p3lGX17hOPoHhq5PQ": {"review_count": 192, "name": "Yasu Sushi Bistro", "longitude": -111.9872563, "full_address": "4316 E Cactus Rd\nPhoenix, AZ 85032", "stars": 4.0, "latitude": 33.5997262}, "LYyGQgL60VKdV-p_9OxmWQ": {"review_count": 78, "name": "Flavors of India", "longitude": -112.047179, "full_address": "4515 N 16th St\nPhoenix, AZ 85016", "stars": 3.5, "latitude": 33.503024}, "nk6_ipMkmUvUtq6Xvncf0A": {"review_count": 101, "name": "RA Sushi Bar Restaurant", "longitude": -111.9297079, "full_address": "7012 E Greenway Pkwy\nScottsdale, AZ 85254", "stars": 3.5, "latitude": 33.6230152}, "SYSBZeffWbScfQsI_e4b0w": {"review_count": 3, "name": "New King Wah Chinese Buffet", "longitude": -112.070677, "full_address": "220 E Southern Ave\nPhoenix, AZ 85040", "stars": 3.0, "latitude": 33.392663}, "C_eWAEOvkHZ_IZYGwjtpmg": {"review_count": 81, "name": "Saddle Ranch Chop House", "longitude": -112.2581306, "full_address": "9375 W Coyotes Blvd\nGlendale, AZ 85305", "stars": 3.5, "latitude": 33.5331251}, "5_Il_eOuwOMMoiT8jGBxyQ": {"review_count": 57, "name": "Il Posto", "longitude": -112.0651591, "full_address": "9832 N 7th St\nPhoenix, AZ 85020", "stars": 3.5, "latitude": 33.5754929}, "oyzxIqrtzu-8sWlPhJVsLw": {"review_count": 147, "name": "Carolina's Mexican Food", "longitude": -112.03605, "full_address": "2126 E Cactus Rd\nPhoenix, AZ 85022", "stars": 4.0, "latitude": 33.597213}, "lut0g04VsYRyblR1Ad-8HA": {"review_count": 51, "name": "PF Chang's China Bistro", "longitude": -112.1117351, "full_address": "2420 W Happy Valley Rd\nNorterra\nPhoenix, AZ 85085", "stars": 3.5, "latitude": 33.7129797}, "xEg0-xrQywU5K-WQO7cy0w": {"review_count": 97, "name": "Indian Paradise", "longitude": -111.904171575451, "full_address": "15111 N Hayden Rd\nSte 170\nScottsdale, AZ 85260", "stars": 4.0, "latitude": 33.6222859533147}, "muCl5p-9ut1sY0aKeUeRhw": {"review_count": 183, "name": "Cheuvront", "longitude": -112.074519, "full_address": "1326 N Central Ave\nPhoenix, AZ 85004", "stars": 3.5, "latitude": 33.463308}, "KGX7O-_WqOIy9o7u9NOa9A": {"review_count": 163, "name": "Sonora Mesquite Grill", "longitude": -111.9825532, "full_address": "4613 E Thomas Rd\nPhoenix, AZ 85018", "stars": 4.5, "latitude": 33.480203}, "vMeO4qFGHvu8ZyMsH0LDdw": {"review_count": 58, "name": "Boston's Restaurant & Sports Bar", "longitude": -111.944507, "full_address": "400 West University Dr.\nTempe, AZ 85281", "stars": 3.0, "latitude": 33.4221689}, "91n02N35x38nvR1XH-jOAw": {"review_count": 58, "name": "Jimmy's of Chicago", "longitude": -111.772012, "full_address": "3107 S Gilbert Rd\nSte 107\nGilbert, AZ 85296", "stars": 3.5, "latitude": 33.31081}, "JhupPnWfNlMJivnWB5druA": {"review_count": 299, "name": "AZ 88", "longitude": -111.9236549, "full_address": "7353 E Scottsdale Mall\nScottsdale, AZ 85251", "stars": 4.0, "latitude": 33.492335}, "QKGZajo_Xm6AW3lHkU9Mmg": {"review_count": 82, "name": "Mastro's Steakhouse", "longitude": -111.8899216, "full_address": "8852 E Pinnacle Peak Rd\nScottsdale, AZ 85255", "stars": 4.5, "latitude": 33.6987337}, "FuqWdD44gYFhofESN6JD1A": {"review_count": 47, "name": "Bella Luna Ristorante", "longitude": -112.364213, "full_address": "14175 W Indian School Rd\nGoodyear, AZ 85338", "stars": 3.5, "latitude": 33.484439}, "-GYx5GAx_-4XEsn7mFwdkA": {"review_count": 11, "name": "Red Robin America's Gourmet Burgers & Spirits", "longitude": -111.8059007, "full_address": "1636 S Stapley Drive\nMesa, AZ 85204", "stars": 2.5, "latitude": 33.3838835}, "EWnSPExh_T5zTv6oMJOC5g": {"review_count": 29, "name": "Mr Chao's Asian Bistro", "longitude": -111.991311, "full_address": "4232 E Chandler Blvd\nSte 4\nPhoenix, AZ 85048", "stars": 3.5, "latitude": 33.305824}, "reMYkuDhLk4raAviOFtvOQ": {"review_count": 38, "name": "Lenny's Burger Shop", "longitude": -112.119087, "full_address": "13616 N 35th Ave\nSte 1\nPhoenix, AZ 85029", "stars": 4.0, "latitude": 33.597474}, "CBkGxR3tZjR91bmI0gUuBQ": {"review_count": 18, "name": "Shanghai Grill", "longitude": -112.253795, "full_address": "9044 W Union Hills Dr # 101\nPeoria, AZ 85382", "stars": 4.0, "latitude": 33.6526471}, "OIBrslaVxFxaaGUsYFUujg": {"review_count": 38, "name": "Olive Garden Italian Restaurant ", "longitude": -112.120266, "full_address": "10223 N Metro Parkway E\nPhoenix, AZ 85051", "stars": 3.5, "latitude": 33.58041}, "L7UxfZyS_-jFOxRwG0SZWw": {"review_count": 73, "name": "Jimmy John's", "longitude": -111.9401874, "full_address": "680 S Mill Ave\nTempe, AZ 85281", "stars": 4.0, "latitude": 33.4240085}, "1sNa5oW9ZYX8MbMFkx9LzQ": {"review_count": 70, "name": "Jasmine Tokyo", "longitude": -111.9301931, "full_address": "7000 East Shea Blvd\nScottsdale, AZ 85254", "stars": 4.0, "latitude": 33.5825532}, "Qd0fyF-wB_1bQwSB34ggkw": {"review_count": 77, "name": "How Do You Roll?", "longitude": -112.0772, "full_address": "1515 N 7th Ave\nSte 100\nPhoenix, AZ 85003", "stars": 4.0, "latitude": 33.449188}, "fK7ujDbjhRFEe2D7eIwK4w": {"review_count": 170, "name": "Kona Grill", "longitude": -111.9296765, "full_address": "7014 E Camelback Rd\nFashion Square Mall\nScottsdale, AZ 85251", "stars": 3.5, "latitude": 33.5025941}, "Pg8OPh1D2ws0xO-I-8ppoA": {"review_count": 119, "name": "Upper Crust Pizza Patio Lounge & Wine Bar", "longitude": -112.030189633369, "full_address": "20235 N Cave Creek Rd\nSte 111\nPhoenix, AZ 85024", "stars": 4.0, "latitude": 33.67106847428}, "eTbtfgUtfewdncgVf2CbWw": {"review_count": 263, "name": "Essence Bakery Caf\u00e9", "longitude": -111.951184, "full_address": "825 W University Dr\nTempe, AZ 85281", "stars": 4.0, "latitude": 33.4217923}, "63oKTPacLDyd9D5XwmAlUA": {"review_count": 103, "name": "Classic Italian Pizza", "longitude": -111.923529, "full_address": "1030 E Baseline Rd\n#156\nTempe, AZ 85283", "stars": 4.0, "latitude": 33.379421}, "s26P-jeVUH9TjnTPQttPag": {"review_count": 53, "name": "RA Sushi Bar Restaurant", "longitude": -111.7541801, "full_address": "1652 S Val Vista Dr\nSte 101\nMesa, AZ 85204", "stars": 3.0, "latitude": 33.385548}, "FURgKkRFtMK5yKbjYZVVwA": {"review_count": 326, "name": "Windsor", "longitude": -112.07341192283, "full_address": "5223 N Central Ave\nPhoenix, AZ 85012", "stars": 4.0, "latitude": 33.513697188158}, "jgbEZzERVI4yvAAtXWW93A": {"review_count": 157, "name": "La Piazza al Forno", "longitude": -112.1839297, "full_address": "5803 W Glendale Ave\nGlendale, AZ 85301", "stars": 4.0, "latitude": 33.5384203}, "-mz0Zr0Dw6ZASg7_ah1R8A": {"review_count": 45, "name": "Sing High Chop Suey House", "longitude": -112.0741278, "full_address": "27 W Madison St\nPhoenix, AZ 85003", "stars": 3.0, "latitude": 33.4460879}, "8cL7aJVKTYmLguzXEAS3Lw": {"review_count": 128, "name": "Yard House", "longitude": -111.9746066, "full_address": "21001 N Tatum Blvd\nPhoenix, AZ 85050", "stars": 3.5, "latitude": 33.678615}, "2unQHR9uaRxk3dsW6f3MGA": {"review_count": 47, "name": "Lao Ching Hing", "longitude": -111.9878697, "full_address": "Cofco Chinese Cultural Center\n668 N 44th St\nPhoenix, AZ 85008", "stars": 3.0, "latitude": 33.4552907}, "NzbCi3p0HqU2SX__853VwA": {"review_count": 26, "name": "P.B. Loco", "longitude": -111.9296765, "full_address": "Scottsdale Fashion Square\n7014 E Camelback Rd, #2276\nScottsdale, AZ 85251", "stars": 4.0, "latitude": 33.5025941}, "lPAHpSIc2MvY06bWxrFRiw": {"review_count": 40, "name": "SteakenBurger / Long Wongs", "longitude": -112.103575, "full_address": "1961 W Dunlap Ave\nPhoenix, AZ 85021", "stars": 3.5, "latitude": 33.567258}, "1f_DXcxpAKfILKK6cDPLxQ": {"review_count": 20, "name": "Sign Of The Whale", "longitude": -111.9676661, "full_address": "1706 E Warner Rd\nSte 3\nTempe, AZ 85284", "stars": 3.5, "latitude": 33.3345061}, "wH_kpDuTE6ChDAp5AlMfJA": {"review_count": 48, "name": "Mekong Palace", "longitude": -111.875779, "full_address": "66 S Dobson Rd\nSte 120\nMesa, AZ 85202", "stars": 3.5, "latitude": 33.413158}, "PLr4DLzZG6vgvaxEdlFHjw": {"review_count": 4, "name": "New India Cuisine", "longitude": -112.0652887, "full_address": "2544 N 7th St\nPhoenix, AZ 85006", "stars": 3.5, "latitude": 33.4761108}, "VVeogjZya58oiTxK7qUjAQ": {"review_count": 803, "name": "Pizzeria Bianco", "longitude": -112.065458, "full_address": "623 E Adams St\nPhoenix, AZ 85004", "stars": 4.0, "latitude": 33.449233}, "T4ox3wUzFjWvyrjaTRoBbA": {"review_count": 112, "name": "Sushi Ken", "longitude": -111.9927062, "full_address": "4206 E Chandler Blvd\nPhoenix, AZ 85073", "stars": 4.0, "latitude": 33.3058378}, "adKyTJT-RtaTP0krxLyQwQ": {"review_count": 63, "name": "Blu Burger Grille", "longitude": -111.8580919, "full_address": "4995 South Alma School\nSuite 1\nChandler, AZ 85248", "stars": 3.5, "latitude": 33.2333299}, "wNsmt1hF1uv3YvbwXZMAoQ": {"review_count": 153, "name": "O.H.S.O. Eatery + nanoBrewery", "longitude": -111.975898, "full_address": "4900 E Indian School Rd\nPhoenix, AZ 85018", "stars": 4.0, "latitude": 33.495018}, "Ou21lwEBBlUNG3JRAFWFAA": {"review_count": 67, "name": "Takamatsu", "longitude": -112.1490084, "full_address": "4214 W Dunlap Ave\nPhoenix, AZ 85051", "stars": 3.5, "latitude": 33.5676657}, "wH9WtaTlrRawH_IpK90RPg": {"review_count": 131, "name": "The Lodge", "longitude": -111.9202691, "full_address": "4422 N 75th St\nScottsdale, AZ 85251", "stars": 4.0, "latitude": 33.5009333}, "OllL0G9Kh_k1lx-2vrFDXQ": {"review_count": 128, "name": "America's Taco Shop", "longitude": -112.082092, "full_address": "4447 N 7th Ave\nPhoenix, AZ 85013", "stars": 4.0, "latitude": 33.501936}, "h7hr0v3E1ulU2sXNItD5UQ": {"review_count": 92, "name": "Fiesta Burrito", "longitude": -111.9216144, "full_address": "7402 E McDowell Rd\nScottsdale, AZ 85257", "stars": 4.0, "latitude": 33.4659256}, "YQz2fnfnL5eAWn1zOmKYnQ": {"review_count": 67, "name": "Andreoli Italian Grocer", "longitude": -111.889631, "full_address": "8880 E Via Linda\nScottsdale, AZ 85258", "stars": 4.0, "latitude": 33.569524}, "pfTwzep_4hRTX_jXoi38cw": {"review_count": 122, "name": "Two Hippies Magic Mushroom Burgers", "longitude": -112.063756, "full_address": "802 E Indian School Rd\nPhoenix, AZ 85073", "stars": 3.5, "latitude": 33.495024}, "bfrjf244fMcEA-duT2aZuQ": {"review_count": 19, "name": "Jen Buffet", "longitude": -111.854277, "full_address": "700 W Warner Rd\nChandler, AZ 85225", "stars": 3.5, "latitude": 33.33563}, "W1yep4yDSoLbDFIL4Avz5w": {"review_count": 60, "name": "Veneto Trattoria", "longitude": -111.9246221, "full_address": "6137 N Scottsdale Rd\nScottsdale, AZ 85250", "stars": 4.0, "latitude": 33.52681}, "kFVapB4z_5VoOnYazF_ERA": {"review_count": 186, "name": "Oregano's Pizza Bistro", "longitude": -111.926895, "full_address": "3102 N Scottsdale Rd\nScottsdale, AZ 85251", "stars": 4.0, "latitude": 33.483281}, "Xsl-i1otDd3GXJEkkKJCaw": {"review_count": 37, "name": "Diamond's Chinese Restaurant", "longitude": -112.0827581, "full_address": "4402 N 7th Ave\nPhoenix, AZ 85013", "stars": 3.0, "latitude": 33.5005043}, "nLLs9fIiWw6WDku3_2NVVA": {"review_count": 28, "name": "China Grill", "longitude": -112.2216436, "full_address": "7518 W Thunderbird Rd\nSte 3\nPeoria, AZ 85381", "stars": 4.0, "latitude": 33.6112406}, "btlVeAeHKq287Ux6SrUwdw": {"review_count": 27, "name": "Sweet Tomatoes", "longitude": -112.2223302, "full_address": "7565 West Bell Road\nPeoria, AZ 85382", "stars": 3.0, "latitude": 33.6378841}, "4mZ__NR8jLD1k0rYpSbplA": {"review_count": 25, "name": "Outback Steakhouse", "longitude": -111.97931, "full_address": "4715 E Cactus Rd\nPhoenix, AZ 85032", "stars": 3.5, "latitude": 33.597866}, "B6sT5YGBYB9KfhkiZtzQ4A": {"review_count": 18, "name": "Asian Grill", "longitude": -111.8588719, "full_address": "10325 E Riggs Rd\nSte 112\nSun Lakes, AZ 85248", "stars": 4.0, "latitude": 33.2181007}, "gHKB66up5VluCWT4vuSZpw": {"review_count": 76, "name": "Tutti Santi By Nina", "longitude": -111.943525, "full_address": "6339 E Greenway Rd\nSte 108\nScottsdale, AZ 85254", "stars": 4.0, "latitude": 33.624662}, "nHxi4UjqWOLRidFNnoccAw": {"review_count": 24, "name": "Eagles Buffet", "longitude": -111.8210866, "full_address": "Casino Arizona\n524 N 92nd St\nScottsdale, AZ 85256", "stars": 4.0, "latitude": 33.5013596}, "IwkqtlUI8DV48QxCz80WQw": {"review_count": 72, "name": "Rawhide At Wild Horse Pass", "longitude": -111.9802308, "full_address": "5700 W N Lp Rd\nChandler, AZ 85226", "stars": 3.5, "latitude": 33.272043}, "r4AG1WXCRWkZKQctrcy9FA": {"review_count": 89, "name": "Grimaldi's Pizzeria", "longitude": -112.2707018, "full_address": "9788 W Northern Ave\nPeoria, AZ 85345", "stars": 3.5, "latitude": 33.5515304}, "nFo_63pTr-4ZhakuaRFOCA": {"review_count": 97, "name": "SOL Mexican Cocina", "longitude": -111.9258843, "full_address": "15323 N Scottsdale Rd\nSte 195\nScottsdale, AZ 85254", "stars": 3.5, "latitude": 33.6177796}, "7_zL7NX_rDFwhbLp98PwZg": {"review_count": 198, "name": "RA Sushi Bar Restaurant", "longitude": -111.9258022, "full_address": "3815 N Scottsdale Rd\nScottsdale, AZ 85251", "stars": 3.0, "latitude": 33.4920033}, "nKrK1aK2uWtL57Q3ShH6Hg": {"review_count": 71, "name": "Yume Sushi Grill", "longitude": -111.9253385, "full_address": "16459 N Scottsdale Rd\nSte 119\nScottsdale, AZ 85254", "stars": 4.0, "latitude": 33.6355242}, "hebts_NucpamjCG2B9VY5g": {"review_count": 79, "name": "Corleone's", "longitude": -111.939838, "full_address": "411 S Mill Ave\nTempe, AZ 85281", "stars": 3.0, "latitude": 33.4261603}, "lvM9OzZaZWo1gC8Mwcthjw": {"review_count": 31, "name": "Donna's Bakery Cafe", "longitude": -111.947591, "full_address": "710 W Elliot Rd\nSte 101\nTempe, AZ 85284", "stars": 4.0, "latitude": 33.349676}, "S8R5c7-plWe3NtmijYAJvg": {"review_count": 43, "name": "Sacks Art of Sandwicherie", "longitude": -111.9893448, "full_address": "4247 E Indian School Rd\nPhoenix, AZ 85018", "stars": 3.5, "latitude": 33.494594}, "xxyuGOeAWnKVwIfoKnfUNA": {"review_count": 82, "name": "Jimmy Woo's", "longitude": -111.9259521, "full_address": "4233 N Scottsdale Rd\nScottsdale, AZ 85251", "stars": 3.0, "latitude": 33.4977992}, "3jqOv6re-xPYOg7srmi7tg": {"review_count": 89, "name": "Picazzo's Organic Italian Kitchen", "longitude": -111.9445728, "full_address": "440 W Warner Rd\nTempe, AZ 85284", "stars": 4.0, "latitude": 33.3350531}, "e8FMAuTswDueAlLsNyLhcA": {"review_count": 291, "name": "Daily Dose", "longitude": -111.9264472, "full_address": "4020 N Scottsdale Rd\nScottsdale, AZ 85251", "stars": 4.0, "latitude": 33.4942423}, "UtUXhKh7vOVvWJF48IzJvQ": {"review_count": 55, "name": "P.F. Chang's China Bistro", "longitude": -111.926204898515, "full_address": "7132 E Greenway Pkwy.\nKierland Commons\nScottsdale, AZ 85254", "stars": 3.5, "latitude": 33.6234604140552}, "6nseTZb6WrGWcithRThfag": {"review_count": 140, "name": "Padre's Modern Mexican Cuisine", "longitude": -112.0588374, "full_address": "1044 E Camelback Rd\nPhoenix, AZ 85014", "stars": 4.0, "latitude": 33.5093453}, "ObYf1kZVWfL8NocxUwGJKg": {"review_count": 69, "name": "Juan Jaime's", "longitude": -111.88516, "full_address": "2510 W Chandler Blvd\nSte 1\nChandler, AZ 85224", "stars": 3.5, "latitude": 33.3059969}, "luCSjoNQ9q_0QIjKKOy2pQ": {"review_count": 236, "name": "Papago Brewing", "longitude": -111.9279622, "full_address": "7107 E McDowell Rd\nScottsdale, AZ 85257", "stars": 4.0, "latitude": 33.4655863}, "qlrZzAktK8wODSHxhLEK7w": {"review_count": 148, "name": "Two Hippies Beach House Outrageous Tacos and Burritos", "longitude": -112.0670453, "full_address": "501 E Camelback Rd\nPhoenix, AZ 85012", "stars": 3.5, "latitude": 33.509038}, "DUDr1kuGv6eh1_s2GWJVgw": {"review_count": 40, "name": "Potbelly Sandwich Shop", "longitude": -112.0362686, "full_address": "2131 E Camelback Rd\nPhoenix, AZ 85016", "stars": 4.0, "latitude": 33.5092763}, "Tt6DYs0TyERWHWW5xiRL_A": {"review_count": 160, "name": "Yen Sushi & Sake Bar", "longitude": -112.151282, "full_address": "17037 N 43rd Ave\nPhoenix, AZ 85308", "stars": 4.0, "latitude": 33.640832}, "0m0KmAYGvC34MfwJIEgCEA": {"review_count": 30, "name": "Fuddruckers", "longitude": -111.963499, "full_address": "7470 S Priest Dr\nTempe, AZ 85283", "stars": 3.5, "latitude": 33.351139}, "Xk3inJcuBGLhavUcdlINZA": {"review_count": 38, "name": "Crudo", "longitude": -112.0040831, "full_address": "3603 E Indian School Rd\nSte B\nPhoenix, AZ 85018", "stars": 4.5, "latitude": 33.4951572}, "VsrvWdZL2993olnW3z8R3A": {"review_count": 94, "name": "Five Guys Burgers and Fries", "longitude": -112.0675947, "full_address": "425 E Bell Rd\nSte 130\nPhoenix, AZ 85022", "stars": 3.5, "latitude": 33.6401855}, "52QtjHlHoa7V611bOvv1aw": {"review_count": 139, "name": "Sushi Roku", "longitude": -111.924255, "full_address": "W Scottsdale\n7277 E Camelback Rd\nScottsdale, AZ 85251", "stars": 3.5, "latitude": 33.5022311}, "TMdHhDI7jYQ9206dtvrBgA": {"review_count": 77, "name": "Restaurant Mexico", "longitude": -111.939852, "full_address": "423 S Mill Ave\nSte A\nTempe, AZ 85281", "stars": 3.5, "latitude": 33.4259681}, "nBfusVbqwul0BU0Rcrlelw": {"review_count": 94, "name": "RA Sushi Bar Restaurant", "longitude": -111.9780071, "full_address": "4921 E Ray Rd\nPhoenix, AZ 85044", "stars": 3.0, "latitude": 33.3197625}, "rr13jM6SUmfPPPGHHMHCgQ": {"review_count": 90, "name": "Mido Sushi", "longitude": -111.9446939218, "full_address": "5965 W Ray Rd\nChandler, AZ 85226", "stars": 4.0, "latitude": 33.320203785852}, "x7M9x4AqyC-oYk0rajrOWw": {"review_count": 36, "name": "Burger Studio", "longitude": -112.0651595, "full_address": "9822 N 7th St\n#8\nPhoenix, AZ 85020", "stars": 2.5, "latitude": 33.575415}, "jy4-gm73tseqSvtqSt9pZA": {"review_count": 20, "name": "Red Robin Gourmet Burgers", "longitude": -111.688031, "full_address": "6632 E Superstition Springs\nMesa, AZ 85206", "stars": 3.5, "latitude": 33.385541}, "BBPkwpj9kSeDuy0uOwWHJA": {"review_count": 65, "name": "Nagasaki Grill Toh Zan", "longitude": -111.8772849, "full_address": "2120 W Southern Ave\nMesa, AZ 85202", "stars": 4.0, "latitude": 33.3939372}, "n-iA7O3vKAgCMk3Caf2Syw": {"review_count": 36, "name": "Firehouse Subs", "longitude": -111.757045, "full_address": "3420 E. Baseline Rd.\nSte 101\nMesa, AZ 85204", "stars": 4.0, "latitude": 33.379618}, "28ycqW56i70yM_C0ejNv9w": {"review_count": 58, "name": "Tien Wong Hot Pot", "longitude": -111.860002, "full_address": "2330 N Alma School Rd\nSte 118\nChandler, AZ 85224", "stars": 4.0, "latitude": 33.33985}, "N_6bV3c3JagKW7sD3X9ldA": {"review_count": 111, "name": "Original Hamburger Works", "longitude": -112.091191, "full_address": "2801 N 15th Ave\nPhoenix, AZ 85007", "stars": 4.0, "latitude": 33.4798163}, "KS2w8ychyieJbUqRa6kCHw": {"review_count": 73, "name": "Cheba Hut", "longitude": -111.8686061, "full_address": "1710 W Southern Ave\nMesa, AZ 85202", "stars": 4.5, "latitude": 33.3932601}, "yA9gOueRPoQ4-Y8Xdu8k3Q": {"review_count": 48, "name": "Which Wich Superior Sandwiches", "longitude": -112.259674072266, "full_address": "9404 W Westgate Blvd\nGlendale, AZ 85305", "stars": 4.0, "latitude": 33.5356713795255}, "sbsFamEj5wDxNAjUKrMcSw": {"review_count": 264, "name": "RnR", "longitude": -111.925841, "full_address": "3737 N Scottsdale Rd\nScottsdale, AZ 85251", "stars": 3.5, "latitude": 33.4915779}, "ykfTh6HI219NoMsWBxulxw": {"review_count": 57, "name": "Gourmet House of Hong Kong", "longitude": -112.0503324, "full_address": "1438 E McDowell Rd\nPhoenix, AZ 85006", "stars": 3.5, "latitude": 33.4659091}, "zMa6YoEekpABg1HZnnTZdg": {"review_count": 210, "name": "Hillstone", "longitude": -112.024174, "full_address": "2650 E Camelback Rd\nPhoenix, AZ 85016", "stars": 4.0, "latitude": 33.510026}, "KoIRdcIfh3XWxiCeV1BDmA": {"review_count": 175, "name": "Cien Agaves Tacos & Tequila", "longitude": -111.925316, "full_address": "7228 E 1st Ave\nScottsdale, AZ 85251", "stars": 3.5, "latitude": 33.4942939}, "wN_wAXWg8W94v04eqijy6g": {"review_count": 182, "name": "Tacos Atoyac", "longitude": -112.0986063, "full_address": "1830 W Glendale Ave\nPhoenix, AZ 85021", "stars": 4.5, "latitude": 33.5386441}, "gqLWBFxOKag8dXwVxEvTrg": {"review_count": 105, "name": "Sakana Sushi & Grill", "longitude": -112.1868299, "full_address": "20250 N 59th Ave\nGlendale, AZ 85308", "stars": 4.0, "latitude": 33.6696493}, "zSzE4rW9FE3fGqiEzZ91Vw": {"review_count": 83, "name": "America's Taco Shop", "longitude": -111.9273071, "full_address": "735 E University Dr\nTempe, AZ 85281", "stars": 3.5, "latitude": 33.4219276}, "VRxelK__tuQD0KBxx2LzeQ": {"review_count": 68, "name": "Organ Stop Pizza", "longitude": -111.807604, "full_address": "1149 E Southern Ave\nMesa, AZ 85204", "stars": 3.5, "latitude": 33.392791}, "EGiGWZp_zSqdeftiFQ7MbA": {"review_count": 92, "name": "Cantina Laredo", "longitude": -111.9217796, "full_address": "7361 E Frank Lloyd Wright Blvd\nScottsdale, AZ 85260", "stars": 3.5, "latitude": 33.637034}, "O-usNZUjADajkeYXIDAJiQ": {"review_count": 24, "name": "Micky's Hot Dogs", "longitude": -111.8344631, "full_address": "108 W Broadway Rd\nMesa, AZ 85210", "stars": 4.5, "latitude": 33.4078685}, "iDoigI3605ixHl_qHly3Tg": {"review_count": 65, "name": "Ruth's Chris Steak House", "longitude": -112.0342897, "full_address": "2201 E Camelback Rd\nSte 106-A\nPhoenix, AZ 85016", "stars": 4.0, "latitude": 33.5088428}, "1AMncE6Lxdr6J9PeqZi4nA": {"review_count": 43, "name": "Bill Johnson's Big Apple Restaurants", "longitude": -112.0000508, "full_address": "3757 E. Van Buren Street\nPhoenix, AZ 85008", "stars": 3.0, "latitude": 33.4511945}, "EKzMHI1tip8rC1-ZAy64yg": {"review_count": 269, "name": "House of Tricks", "longitude": -111.937394, "full_address": "114 E 7th St\nTempe, AZ 85281", "stars": 4.0, "latitude": 33.423546}, "SDwYQ6eSu1htn8vHWv128g": {"review_count": 575, "name": "Postino Arcadia", "longitude": -111.996292, "full_address": "3939 E Campbell Ave\nPhoenix, AZ 85018", "stars": 4.5, "latitude": 33.502191}, "8TGUK7LD3M-vLWml-jLb0w": {"review_count": 37, "name": "Best Hong Kong Dining", "longitude": -111.875578, "full_address": "1116 S Dobson Rd\nSte 123\nMesa, AZ 85202", "stars": 3.5, "latitude": 33.394432}, "PAtgWCLCFRQd_fjnihISOg": {"review_count": 30, "name": "L'amore", "longitude": -112.0151722, "full_address": "3159 E Lincoln Dr\nPhoenix, AZ 85016", "stars": 4.5, "latitude": 33.5307049}, "xMK01ZbVUYLLoyqoeWAIVw": {"review_count": 78, "name": "The Keg Steakhouse & Bar", "longitude": -111.8973083, "full_address": "3065 W Chandler Blvd\nChandler, AZ 85226", "stars": 4.0, "latitude": 33.3056888}, "ZoQAOnEFnyHjSpomtfqesA": {"review_count": 83, "name": "That's A Wrap", "longitude": -112.0653186, "full_address": "2022 N 7th St\nPhoenix, AZ 85006", "stars": 4.0, "latitude": 33.4702022}, "hqVbmZNLTdR2y7G7oJu9vg": {"review_count": 54, "name": "Tutti Santi by Nina", "longitude": -112.047023, "full_address": "7575 N 16th St\nSte 5\nPhoenix, AZ 85020", "stars": 4.0, "latitude": 33.546608}, "d52zg-S0o940WUCK-nNiKw": {"review_count": 259, "name": "Carolina's Mexican Food", "longitude": -112.0561119, "full_address": "1202 E Mohave St\nPhoenix, AZ 85034", "stars": 4.0, "latitude": 33.4315119}, "JsanjIgKkl_b6kc4qWC55Q": {"review_count": 68, "name": "Delhi Palace Cuisine of India", "longitude": -111.924806, "full_address": "933 E University Dr\nSte 103\nTempe, AZ 85281", "stars": 4.0, "latitude": 33.42135}, "BO_TJFFJyXu8i2rW83hG3g": {"review_count": 25, "name": "Relish Burger Bistro", "longitude": -111.9514408, "full_address": "6000 E Camelback Rd\nScottsdale, AZ 85251", "stars": 4.0, "latitude": 33.5019602}, "iV7D7fHKb-bF9fCL_bEMtA": {"review_count": 115, "name": "Cork Restaurant", "longitude": -111.87918, "full_address": "4991 S Alma School Rd\nSte 101\nChandler, AZ 85248", "stars": 4.0, "latitude": 33.2475}, "0qUesn1TBPpPjW20h5Lqfg": {"review_count": 79, "name": "Fresh Wasabi", "longitude": -112.19974, "full_address": "6645 W Bell Rd\nSte 103\nGlendale, AZ 85308", "stars": 4.0, "latitude": 33.637161}, "UWrB5H3G-hhiHMy3iKV2ew": {"review_count": 58, "name": "Cheese 'n Stuff", "longitude": -112.0739972, "full_address": "5042 N Central Ave\nPhoenix, AZ 85012", "stars": 4.5, "latitude": 33.5102512}, "Lgqk00bglDyZfe5KbLhw6Q": {"review_count": 44, "name": "Buca di Beppo", "longitude": -111.9652346, "full_address": "7111 West Ray Rd\nChandler, AZ 85226", "stars": 3.0, "latitude": 33.3194165}, "NDKkce5Au-o_OhIt5f2ZBg": {"review_count": 110, "name": "Zen 32", "longitude": -112.01408, "full_address": "3160 E Camelback Rd\nPhoenix, AZ 85016", "stars": 3.0, "latitude": 33.5100455}, "bgTB6MgdVQssXhkNJ7qIfw": {"review_count": 315, "name": "Roka Akor", "longitude": -111.925634, "full_address": "7299 N Scottsdale Rd\nScottsdale, AZ 85253", "stars": 4.0, "latitude": 33.542193}, "41V_WrLzJErAkjAHbFrqsQ": {"review_count": 7, "name": "Happy Buffet", "longitude": -112.0565728, "full_address": "7822 N 12th St\nSte 2\nPhoenix, AZ 85020", "stars": 3.5, "latitude": 33.5511413}, "mjoxSQR7bFQtlIIjfNfaSQ": {"review_count": 72, "name": "Big Buddha", "longitude": -112.4159659, "full_address": "16572 W Greenway Rd\nSte 115\nSurprise, AZ 85388", "stars": 4.0, "latitude": 33.6239817}, "MpFziuV66BreNV1VMCYs9g": {"review_count": 16, "name": "Golden Corral", "longitude": -112.3415813, "full_address": "420 N Dysart Rd\nGoodyear, AZ 85338", "stars": 3.0, "latitude": 33.4511554}, "iZpgRNPogioU5sEaDyl5uw": {"review_count": 49, "name": "Chopstick Express", "longitude": -111.9275536, "full_address": "939 E Guadalupe Rd\nSte 1\nTempe, AZ 85283", "stars": 3.0, "latitude": 33.3633494}, "8HheTzFpxkOlfFxJy-sIMw": {"review_count": 34, "name": "ShinBay", "longitude": -111.924451589584, "full_address": "7001 N Scottsdale Rd\nScottsdale, AZ 85253", "stars": 5.0, "latitude": 33.5394005033294}, "E6DnUFy3GoN4DxTqturtug": {"review_count": 61, "name": "Alessia's Ristorante Italiano", "longitude": -111.7181797, "full_address": "5251 E Brown Rd\nMesa, AZ 85205", "stars": 4.5, "latitude": 33.4373518}, "jRfdz5voj40P6WS9L54caw": {"review_count": 236, "name": "The Herb Box", "longitude": -111.927891, "full_address": "7134 E Stetson Dr\nSte 200\nScottsdale, AZ 85251", "stars": 4.0, "latitude": 33.499504}, "usy2G5R9MWwtW4TF8obg9w": {"review_count": 12, "name": "Golden Corral", "longitude": -111.697382, "full_address": "2082 E Florence Blvd\nCasa Grande, AZ 85122", "stars": 3.5, "latitude": 32.879795}, "AoO0FJyUm01lmIJJTcPWEQ": {"review_count": 47, "name": "Giant Hamburgers", "longitude": -111.7716542, "full_address": "2753 E Broadway\nSte 104\nMesa, AZ 85204", "stars": 4.0, "latitude": 33.4064076}, "R1kKjAO5kZO6d0gQGqrvGA": {"review_count": 105, "name": "Smashburger", "longitude": -111.9297442, "full_address": "815 E Baseline Rd\nSte B115\nTempe, AZ 85283", "stars": 3.5, "latitude": 33.3782275}, "podj1OWSL3oEJsOpGj8SUw": {"review_count": 96, "name": "Pino's Pizza Al Centro", "longitude": -112.0759353, "full_address": "139 W Thomas Rd\nPhoenix, AZ 85013", "stars": 4.0, "latitude": 33.4801532}, "flUKBy7WHqYdfOrwU1A2SA": {"review_count": 66, "name": "El Bravo", "longitude": -112.0653058, "full_address": "8338 N 7th St\nPhoenix, AZ 85020", "stars": 4.0, "latitude": 33.5599538}, "Tk2dSL0TwQeI_zNJmb442A": {"review_count": 80, "name": "Luke's of Chicago's", "longitude": -112.047259, "full_address": "1602 E Indian School Rd\nPhoenix, AZ 85016", "stars": 3.5, "latitude": 33.495035}, "yQONzVpX-DEpGSuKMIov6A": {"review_count": 81, "name": "Szechwan Palace", "longitude": -111.9878697, "full_address": "Cofco Chinese Cultural Center\n668 N 44th St, Ste 108\nPhoenix, AZ 85008", "stars": 3.5, "latitude": 33.4552907}, "aBjWR-Mol58GMsRAdz2Tjw": {"review_count": 40, "name": "Corner Bakery Cafe", "longitude": -112.233809, "full_address": "16222 N 83rd Ave\nPeoria, AZ 85382", "stars": 3.5, "latitude": 33.6355157}, "vA9dAPd9fQt_3HqZylKfVA": {"review_count": 41, "name": "Jersey Mike's Subs", "longitude": -111.9252882, "full_address": "555 N Scottsdale Rd\nSte 103\nTempe, AZ 85281", "stars": 3.5, "latitude": 33.4342595}, "XkNQVTkCEzBrq7OlRHI11Q": {"review_count": 193, "name": "Pizza A Metro", "longitude": -112.1091081, "full_address": "2336 W Thomas Rd\nPhoenix, AZ 85015", "stars": 4.5, "latitude": 33.4806776}, "xCryT3Vzk_RLIkhiuUJwjQ": {"review_count": 93, "name": "Pure Sushi", "longitude": -111.9067803, "full_address": "20567 N Hayden Rd\nSte 100\nScottsdale, AZ 85255", "stars": 4.0, "latitude": 33.6710331}, "DjdA1xbHki_lopCSxf-Egg": {"review_count": 81, "name": "Greasewood Flat", "longitude": -111.8457878, "full_address": "27375 N Alma School Pkwy\nScottsdale, AZ 85255", "stars": 4.0, "latitude": 33.732058}, "tvyOw9dBJ-ds5fEXMTjzfQ": {"review_count": 31, "name": "Clarendon Kitchen + Bar C4", "longitude": -112.079081, "full_address": "401 W Clarendon Ave\nPhoenix, AZ 85013", "stars": 3.0, "latitude": 33.49112}, "fOfODlhwjrELKlQYUo7ypQ": {"review_count": 7, "name": "Four Seasons Buffet", "longitude": -112.340391, "full_address": "1461 N Dysart Rd\nAvondale, AZ 85323", "stars": 3.0, "latitude": 33.451818}, "kfscAJnLVf6J2uEte7g-5A": {"review_count": 94, "name": "Yoli's Cafe", "longitude": -111.842586, "full_address": "241 S Oregon St\nChandler, AZ 85225", "stars": 4.0, "latitude": 33.299873}, "HEI4WFai9zoixD5GhCnbeg": {"review_count": 15, "name": "Chang's Chinese Buffet", "longitude": -112.152056, "full_address": "9140 N 43rd Ave\nGlendale, AZ 85302", "stars": 3.5, "latitude": 33.568894}, "Shl6PtJERnowSJSC4IHbYQ": {"review_count": 108, "name": "zpizza", "longitude": -112.076718, "full_address": "53 West Thomas Road\nPhoenix, AZ 85013", "stars": 3.5, "latitude": 33.479992}, "XWvht_1ZLdK7EHJ3jo4q0g": {"review_count": 269, "name": "The White Chocolate Grill", "longitude": -111.9300279, "full_address": "7000 E Mayo Blvd\nPhoenix, AZ 85054", "stars": 4.0, "latitude": 33.6556844}, "KIgkwPEOxbfdeCk0ltycOQ": {"review_count": 93, "name": "Maria Maria", "longitude": -111.9043028, "full_address": "2000 E Rio Salado Pkwy\nTempe, AZ 85281", "stars": 3.0, "latitude": 33.4329724}, "LR9mX-3mh_PIEeG1A5zqxg": {"review_count": 36, "name": "Iron Chef", "longitude": -111.687451601028, "full_address": "23706 S Power Rd\nQueen Creek, AZ 85242", "stars": 4.5, "latitude": 33.233464772275}, "EfmR4e1tmjC5_ZQOgfnYrg": {"review_count": 71, "name": "Roma Garden Ristorante", "longitude": -111.9969697, "full_address": "3923 E Thunderbird Rd\nSte 113\nPhoenix, AZ 85032", "stars": 4.5, "latitude": 33.6117382}, "UVEnZjATEGkKLFdzV_dTvA": {"review_count": 44, "name": "Tesoro Ristorante Italiano", "longitude": -111.8390112, "full_address": "11219 E Via Linda\nScottsdale, AZ 85259", "stars": 4.5, "latitude": 33.5874955}, "lK35BgpjOMXwchPzqYWomg": {"review_count": 27, "name": "The Habit Burger Grill", "longitude": -112.081645131111, "full_address": "530 W McDowell Rd\nPhoenix, AZ 85003", "stars": 3.5, "latitude": 33.4659912735871}, "53YGfwmbW73JhFiemNeyzQ": {"review_count": 358, "name": "Olive & Ivy", "longitude": -111.9276185, "full_address": "7135 E Camelback Rd\nSte 195\nScottsdale, AZ 85251", "stars": 4.0, "latitude": 33.5019817}, "NCbHGtOP5yJBJsPPaE3X5g": {"review_count": 74, "name": "India Palace", "longitude": -112.1223355, "full_address": "2941 W Bell Rd\nPhoenix, AZ 85053", "stars": 3.5, "latitude": 33.6397237}, "c0RSs2KYK5Y-ZlSrNq9LyA": {"review_count": 139, "name": "Moto Sushi", "longitude": -112.0474809, "full_address": "6845 N 16th St\nPhoenix, AZ 85016", "stars": 3.5, "latitude": 33.5369963}, "wftoNIA0Q8nX-Da47psBCA": {"review_count": 67, "name": "Au Petit Four", "longitude": -111.9253728, "full_address": "7217 E 4th Ave\nScottsdale, AZ 85251", "stars": 3.5, "latitude": 33.4978182}, "mxrXVZWc6PWk81gvOVNOUw": {"review_count": 293, "name": "Roaring Fork", "longitude": -111.927080154419, "full_address": "4800 N Scottsdale Rd\nSte 1700\nScottsdale, AZ 85251", "stars": 4.0, "latitude": 33.5086952779617}, "35uDzLpJlbSztgkJLtg1kw": {"review_count": 84, "name": "Wildflower Bread Company", "longitude": -111.912417, "full_address": "6428 S McClintock Rd\nSte 104\nTempe, AZ 85283", "stars": 4.0, "latitude": 33.362444}, "10BgGvCMDH-JbYsg8KRLRg": {"review_count": 42, "name": "3 Roots Coffee House and Cafe", "longitude": -111.940305, "full_address": "1020 S Mill Ave\nTempe, AZ 85281", "stars": 3.5, "latitude": 33.418499}, "WSHQ9qpL39g5xA3E5iBCmw": {"review_count": 73, "name": "Michael Dominick's Lincoln Avenue Prime Steakhouse", "longitude": -111.9251335, "full_address": "15169 N Scottsdale Rd\nScottsdale, AZ 85254", "stars": 3.5, "latitude": 33.6239133}, "b4hI0x_vgagZyF_D-OqCLA": {"review_count": 18, "name": "Barrio Fiesta of Manila", "longitude": -111.8576517, "full_address": "941 W Elliot Rd\nChandler, AZ 85224", "stars": 3.0, "latitude": 33.3497229}, "AhpzPZH3b0PGT9mVoLCQDg": {"review_count": 165, "name": "Kabuki Japanese Restaurant", "longitude": -111.9043028, "full_address": "2000 E Rio Salado Pkwy\nTempe, AZ 85281", "stars": 3.5, "latitude": 33.4329724}, "VsO_rhXi5lgbaGxNwoEZsQ": {"review_count": 91, "name": "Fate 905", "longitude": -112.0686108, "full_address": "905 N 4th St\nPhoenix, AZ 85004", "stars": 3.0, "latitude": 33.4577071}, "OFBJtqWGSx6n6CchtVmoRw": {"review_count": 502, "name": "Delux", "longitude": -112.0146407, "full_address": "3146 E Camelback Rd\nPhoenix, AZ 85016", "stars": 4.0, "latitude": 33.5100398}, "B8ujMtvvpHyEQ2r_QlAT2w": {"review_count": 101, "name": "Richardson's Cuisine of New Mexico", "longitude": -112.0480242, "full_address": "1582 E Bethany Home Rd\nPhoenix, AZ 85014", "stars": 4.0, "latitude": 33.5237203}, "bZivzFTkkjNtUBSuMhoCtg": {"review_count": 161, "name": "Sushi Brokers", "longitude": -111.92477, "full_address": "17025 N Scottsdale Rd\nSte 190\nScottsdale, AZ 85255", "stars": 3.5, "latitude": 33.64053}, "9Ep4sguv3HH_8lWyzSogjw": {"review_count": 218, "name": "Indulge Burgers & More", "longitude": -111.9268582, "full_address": "10392 N Scottsdale Rd\nScottsdale, AZ 85254", "stars": 4.0, "latitude": 33.5808348}, "He9Dar4bk2vyeiPC7TkUgA": {"review_count": 152, "name": "Eddie's House", "longitude": -111.9292934, "full_address": "7042 E Indian School Rd\nScottsdale, AZ 85250", "stars": 3.5, "latitude": 33.4950947}, "o_w69y1M6pkKetd1w43i_w": {"review_count": 123, "name": "Brio Tuscan Grille", "longitude": -111.772012, "full_address": "2150 E Williams Field Rd\nSte 118\nGilbert, AZ 85295", "stars": 4.0, "latitude": 33.31081}, "NmYTwkqyaCtEg3wifBkxkw": {"review_count": 31, "name": "Wong's Jr", "longitude": -112.2370076, "full_address": "8317 W Peoria Ave\nPeoria, AZ 85345", "stars": 3.5, "latitude": 33.5819949}, "giyl3pyGo6sbvsnn94f4Hg": {"review_count": 18, "name": "Indian Paradise 2", "longitude": -112.1116606, "full_address": "2410 W Bell Rd\nPhoenix, AZ 85023", "stars": 4.0, "latitude": 33.6401217}, "OE5nAmaSVaopeRS1Cs9Kuw": {"review_count": 222, "name": "Fogo de Chao", "longitude": -111.926437, "full_address": "6300 N Scottsdale Rd\nScottsdale, AZ 85253", "stars": 4.0, "latitude": 33.5299053}, "g9jX2oXQr8zrOQgynYnYjQ": {"review_count": 63, "name": "In-N-Out Burger", "longitude": -111.9197534, "full_address": "7467 E Frank Lloyd Wright Blvd\nScottsdale, AZ 85257", "stars": 4.0, "latitude": 33.6365584}, "BRhKD4BEMg6NagsD3z-0YA": {"review_count": 39, "name": "Red Robin", "longitude": -111.9092776, "full_address": "Tempe Market Place\n19 S McClintock Dr\nTempe, AZ 85281", "stars": 4.0, "latitude": 33.4323564}, "Ez2MFsVT5lJZ05yvK_0AXQ": {"review_count": 206, "name": "Pita Jungle", "longitude": -111.9223917, "full_address": "7366 E. Shea Blvd.\nScottsdale, AZ 85260", "stars": 4.0, "latitude": 33.5840123}, "Nu0_tUBN6R9Oc-YsLVFNJg": {"review_count": 31, "name": "California Pizza Kitchen", "longitude": -111.9019189, "full_address": "3163 W Chandler Blvd\nChandler, AZ 85226", "stars": 3.5, "latitude": 33.3046171}, "r7Ge8_c5Y2TXthb4CSjzaA": {"review_count": 79, "name": "Shogun", "longitude": -111.9797159, "full_address": "12615 N Tatum Blvd\nPhoenix, AZ 85032", "stars": 3.0, "latitude": 33.5999386}, "VOegk0dF7eXP1znjBFg5fw": {"review_count": 4, "name": "New China Buffet", "longitude": -111.8058402, "full_address": "1159 E Main St\nMesa, AZ 85204", "stars": 3.0, "latitude": 33.4150154}, "ZdQbDVZWDsO-d7q2qW8E3A": {"review_count": 56, "name": "George & Son's Asian Cuisine", "longitude": -111.8378867, "full_address": "11291 E Via Linda\nScottsdale, AZ 85259", "stars": 4.0, "latitude": 33.5881614}, "rIonUa02zMz_ki8eF-Adug": {"review_count": 100, "name": "Five Guys Burgers and Fries", "longitude": -111.9401874, "full_address": "680 Mill Ave S\nTempe, AZ 85281", "stars": 3.0, "latitude": 33.4240085}, "j7XuypdW_w935NhjbvKPQw": {"review_count": 171, "name": "Republic Ramen + Noodles", "longitude": -111.916969, "full_address": "1301 E University Dr\nTempe, AZ 85281", "stars": 3.5, "latitude": 33.421303}, "5kRug3bEienrpovtPRVVwg": {"review_count": 272, "name": "Rokerij", "longitude": -112.047101, "full_address": "6335 N 16th St\nPhoenix, AZ 85016", "stars": 4.0, "latitude": 33.530335}, "soiGohHtWOltGeomkSxzEw": {"review_count": 160, "name": "Tee Pee Mexican Food", "longitude": -111.991453, "full_address": "4144 E Indian School Rd\nPhoenix, AZ 85018", "stars": 3.0, "latitude": 33.4951403}, "-JL0CWSLkkzFHZXlctnf8A": {"review_count": 51, "name": "Sweet Tomatoes", "longitude": -111.9149788, "full_address": "1410 East Southern Ave.\nTempe, AZ 85282", "stars": 3.5, "latitude": 33.3931045}, "LYLGCIqNQQrpMwOxJ1hlrg": {"review_count": 66, "name": "Smashburger", "longitude": -111.9300378, "full_address": "777 E College Ave\nSte 105\nTempe, AZ 85281", "stars": 3.5, "latitude": 33.4368974}, "1Q_H3BLhKBymF6Se8FfZNw": {"review_count": 34, "name": "Alto Ristorante e Bar", "longitude": -111.9184649, "full_address": "Inside Hyatt Regency\n7500 E Doubletree Ranch Rd\nScottsdale, AZ 85258", "stars": 4.0, "latitude": 33.5670375}, "Q8OMwgekiTtgClSiRcQcSw": {"review_count": 52, "name": "Buca di Beppo", "longitude": -111.926313, "full_address": "3828 N Scottsdale Rd\nScottsdale, AZ 85251", "stars": 3.0, "latitude": 33.4926382}, "Zx8_4zKdDBSO3qGrkukBIA": {"review_count": 431, "name": "Chino Bandido", "longitude": -112.100731, "full_address": "15414 N 19th Ave\nSte K\nPhoenix, AZ 85023", "stars": 4.0, "latitude": 33.626933}, "XmDiFI8SuougNUi02ZCdwA": {"review_count": 31, "name": "Five Guys", "longitude": -111.986396, "full_address": "2641 N 44th St\nSte 100\nPhoenix, AZ 85008", "stars": 3.0, "latitude": 33.4778329}, "0DvsBDG0CEwIK8uQxUGiOQ": {"review_count": 18, "name": "Red Bird Cafe", "longitude": -111.822446, "full_address": "1533 W Elliot Rd\nGilbert, AZ 85233", "stars": 4.0, "latitude": 33.34927}, "sNuyncpQdcvfEpfZS-3Yew": {"review_count": 153, "name": "Tott's Asian Diner", "longitude": -111.911648, "full_address": "4030 W Ray Rd\nSte 1\nChandler, AZ 85226", "stars": 4.0, "latitude": 33.321266}, "EqZl_lQdB3GVFHCoD7sOyg": {"review_count": 15, "name": "Chicagoland Hotdogs & More", "longitude": -111.684534, "full_address": "1152 N Power Rd\nMesa, AZ 85205", "stars": 3.5, "latitude": 33.436623}, "CsJReJjzMNtw7ZTPCuVZYQ": {"review_count": 31, "name": "Mediterranean Buffet", "longitude": -112.048136, "full_address": "1575 E Camelback  Rd\nPhoenix, AZ 85014", "stars": 2.5, "latitude": 33.508282}, "-3WVw1TNQbPBzaKCaQQ1AQ": {"review_count": 145, "name": "China Chili", "longitude": -112.0691813, "full_address": "302 E Flower St\nPhoenix, AZ 85012", "stars": 3.5, "latitude": 33.48585}, "SzCMZ664veIZpYp4Tk84Hg": {"review_count": 25, "name": "Szechwan Garden", "longitude": -111.929326, "full_address": "5055 W Ray Rd\nSte 1\nChandler, AZ 85226", "stars": 3.5, "latitude": 33.319374}, "lKQ5hnkSQ-XP80jNCH46nQ": {"review_count": 109, "name": "Distrito", "longitude": -111.9218306, "full_address": "4000 N Drinkwater Blvd\nScottsdale, AZ 85251", "stars": 3.5, "latitude": 33.4940321}, "A4pL6j3e6JAtblmCUF2GZA": {"review_count": 68, "name": "Crazy Buffet", "longitude": -111.964952945709, "full_address": "7720 S Priest Dr\nTempe, AZ 85281", "stars": 3.0, "latitude": 33.3480423402709}, "3oZcTGb_oDHGwZFiP-7kxQ": {"review_count": 453, "name": "Chelsea's Kitchen", "longitude": -111.995355, "full_address": "5040 N 40th St\nPhoenix, AZ 85018", "stars": 4.0, "latitude": 33.5123186}, "JokKtdXU7zXHcr20Lrk29A": {"review_count": 735, "name": "Four Peaks Brewing Co", "longitude": -111.915926, "full_address": "1340 E 8th St\nSte 104\nTempe, AZ 85281", "stars": 4.5, "latitude": 33.4194512}, "X6mWr96ibKdXQSA6mpH90g": {"review_count": 42, "name": "In-N-Out Burger", "longitude": -111.9800201, "full_address": "12413 N Tatum Blvd\nPhoenix, AZ 85032", "stars": 4.0, "latitude": 33.5993116}, "h762dZ33uhSKtLZ-21u6Jg": {"review_count": 58, "name": "Ray's Pizza", "longitude": -111.8912034, "full_address": "15576 N Pima Rd\nScottsdale, AZ 85260", "stars": 3.0, "latitude": 33.6267322}, "bAkVxrXzYO3772VF6o0_cA": {"review_count": 30, "name": "Stir Fry Paradise", "longitude": -112.201447, "full_address": "6661 W Bell Rd\nSte 101B\nGlendale, AZ 85308", "stars": 4.0, "latitude": 33.6370916}, "apCfJVnRyaw6oVUBKujpUQ": {"review_count": 109, "name": "La Tolteca Mexican Foods", "longitude": -112.055957, "full_address": "1205 E Van Buren St\nPhoenix, AZ 85006", "stars": 4.0, "latitude": 33.45107}, "cRwNwAGQ8Pc_-orLefrwRw": {"review_count": 77, "name": "Freddy's Frozen Custard & Steakburgers", "longitude": -112.1672471, "full_address": "4929 W Bell Rd\nGlendale, AZ 85308", "stars": 4.0, "latitude": 33.6387798}, "nMHhuYan8e3cONo3PornJA": {"review_count": 189, "name": "Nobuo At Teeter House", "longitude": -112.0656645, "full_address": "622 E Adams St\nPhoenix, AZ 85004", "stars": 4.5, "latitude": 33.4495394}, "jVgtPnzXvZQOCCIUPEBktA": {"review_count": 137, "name": "Jalape\u00f1o Inferno Bistro Mexicano", "longitude": -111.9235128, "full_address": "23587 N Scottsdale Rd\nScottsdale, AZ 85255", "stars": 3.5, "latitude": 33.7005934}, "VpW40mznMS43CqdbelX2wA": {"review_count": 141, "name": "Giuseppe's on 28th", "longitude": -112.020561, "full_address": "2824 E Indian School Rd\nPhoenix, AZ 85016", "stars": 3.5, "latitude": 33.496175}, "JEreQgso7MH_Io3DXGsEOw": {"review_count": 54, "name": "Ocean Prime", "longitude": -111.965274810791, "full_address": "5455 E High St\nPhoenix, AZ 85054", "stars": 4.0, "latitude": 33.6753542414738}, "BD74uSwDe175zEqfppDRvg": {"review_count": 85, "name": "Valle Luna", "longitude": -112.031266, "full_address": "16048 N Cave Creek Rd\nPhoenix, AZ 85073", "stars": 3.5, "latitude": 33.632948}, "Pr9rQKypHgC_J1AfufxzIw": {"review_count": 71, "name": "Wildflower Bread Company", "longitude": -111.8954112, "full_address": "15640 N Hayden Road\nScottsdale, AZ 85260", "stars": 4.0, "latitude": 33.6275125}, "xcOncADGPr9eki8OU5Ln7g": {"review_count": 77, "name": "P.F. Chang's China Bistro", "longitude": -111.940813, "full_address": "740 South Mill Ave\nSte 140\nTempe, AZ 85281", "stars": 3.0, "latitude": 33.42263}, "NNGJQF3WeIHzGzweCpZ-VA": {"review_count": 104, "name": "La Piccola Cucina", "longitude": -112.064752, "full_address": "2241 N 7th St\nPhoenix, AZ 85006", "stars": 3.5, "latitude": 33.472674}, "Cp6JGY5YIRncTV_My9nf9g": {"review_count": 84, "name": "Mariscos Playa Hermosa", "longitude": -112.0474748, "full_address": "1605 E Garfield St\nPhoenix, AZ 85006", "stars": 4.5, "latitude": 33.4576266}, "GvwDppcJLm9lso9iS2hSIw": {"review_count": 48, "name": "Pat's Pizza Plus", "longitude": -112.0571061, "full_address": "1135 E Glendale Ave\nPhoenix, AZ 85020", "stars": 4.0, "latitude": 33.5382586}, "yyahaWDdm1Hes99IZkSJPg": {"review_count": 48, "name": "In-N-Out Burger", "longitude": -112.2330497, "full_address": "8285 W Bell Rd\nPeoria, AZ 85382", "stars": 4.0, "latitude": 33.6379017}, "0BpMvu5B9fY-KEbOuxLtFQ": {"review_count": 54, "name": "Kampai", "longitude": -112.019165147988, "full_address": "2945 E Bell Rd\nSte 102\nPhoenix, AZ 85032", "stars": 3.5, "latitude": 33.639951900923}, "IuAPYzf3NSyfyXYgT46YVA": {"review_count": 203, "name": "FnB", "longitude": -111.927267, "full_address": "7125 E 5th Ave\nSte 31\nScottsdale, AZ 85251", "stars": 4.5, "latitude": 33.497828}, "3N__CAwM5VZOhRKmxMtImw": {"review_count": 54, "name": "Eastwind Restaurant", "longitude": -111.9778024, "full_address": "13637 N Tatum Blvd\nPhoenix, AZ 85032", "stars": 3.5, "latitude": 33.6106247}, "EWMwV5V9BxNs_U6nNVMeqw": {"review_count": 652, "name": "FEZ", "longitude": -112.073196, "full_address": "3815 N Central Ave\nPhoenix, AZ 85012", "stars": 4.0, "latitude": 33.491645}, "MXOdsPTLQPsQK9hUq01DWg": {"review_count": 160, "name": "Arcadia Tavern", "longitude": -111.977849, "full_address": "4801 E Indian School Rd\nPhoenix, AZ 85018", "stars": 3.5, "latitude": 33.494238}, "q-qjZDKcBdDRuIUxj7b97g": {"review_count": 55, "name": "Chart House", "longitude": -111.9239788, "full_address": "7255 E McCormick Pkwy\nScottsdale, AZ 85258", "stars": 3.0, "latitude": 33.5515531}, "Lc-ZYyI83FpEe-8u_LSODQ": {"review_count": 29, "name": "NoRTH", "longitude": -112.203707, "full_address": "20004 N 67th Ave\nSuite 500\nGlendale, AZ 85308", "stars": 3.5, "latitude": 33.665965}, "UL3OMN_c-NXHlyb97pDifA": {"review_count": 157, "name": "Yard House", "longitude": -111.9296765, "full_address": "7014 E Camelback Rd\nScottsdale, AZ 85251", "stars": 3.5, "latitude": 33.5025941}, "0vzZ_Bcb02rJljeMU9XkBw": {"review_count": 132, "name": "Sakana Sushi & Grill", "longitude": -111.9766015, "full_address": "5061 E Elliot Rd\nPhoenix, AZ 85044", "stars": 4.0, "latitude": 33.3488957}, "Q1cSwGiy-RU9XXf9T7HqRw": {"review_count": 15, "name": "Golden Corral", "longitude": -112.3594533, "full_address": "17674 N Litchfield Drive\nSurprise, AZ 85374", "stars": 3.0, "latitude": 33.6415158}, "kaIue7GRCmkPzDeHDBTttQ": {"review_count": 107, "name": "The Blue Fin", "longitude": -112.073568999767, "full_address": "1401 N Central Ave\nPhoenix, AZ 85004", "stars": 4.0, "latitude": 33.4640982988196}, "-vHWAsiX0iHWJw-pkqv32Q": {"review_count": 90, "name": "Kona Grill", "longitude": -111.897967, "full_address": "3111 W Chandler Blvd\nChandler Fashion Center\nChandler, AZ 85226", "stars": 3.5, "latitude": 33.3022462}, "1oFvqm7eSpJbVpxpPxueaA": {"review_count": 42, "name": "Buca di Beppo", "longitude": -112.236796, "full_address": "16091 N Arrowhead Fountains Ctr Dr\nPeoria, AZ 85382", "stars": 3.0, "latitude": 33.632441}, "zw2iJahOnSxlzmRlF4al6g": {"review_count": 38, "name": "The Cider Mill Gourmet Market & Sandwich Shop", "longitude": -111.925028, "full_address": "7240 E Main St\nSte C\nScottsdale, AZ 85251", "stars": 4.0, "latitude": 33.493385}, "sgBl3UDEcNYKwuUb92CYdA": {"review_count": 131, "name": "China King", "longitude": -111.8605718, "full_address": "1050 W Ray Rd\nChandler, AZ 85224", "stars": 4.0, "latitude": 33.3210491}, "YUV08PQk7Vk96r9Q0b3XAw": {"review_count": 35, "name": "Blu Burger Grille", "longitude": -111.9257692, "full_address": "32409 N Scottsdale Rd\nScottsdale, AZ 85262", "stars": 3.5, "latitude": 33.7789868}, "K845ZDttFfx99zQ-0aE2tA": {"review_count": 137, "name": "Cadillac Ranch", "longitude": -111.9043028, "full_address": "2000 E Rio Salado Pkwy\nSte 2105\nTempe, AZ 85281", "stars": 2.5, "latitude": 33.4329724}, "hZRLGfRrZTo9up2P-0aAHg": {"review_count": 55, "name": "Verde", "longitude": -112.072164, "full_address": "825 N 1st St\nPhoenix, AZ 85004", "stars": 4.0, "latitude": 33.457457}, "Nz_AasmpsQ8MLSqhCTRVoA": {"review_count": 57, "name": "Pink Pepper Thai Cusine", "longitude": -111.8761389, "full_address": "1941 W Guadalupe\nMesa, AZ 85201", "stars": 3.5, "latitude": 33.362719}, "3fNGtIfuHwt0-DD9SSjO6Q": {"review_count": 14, "name": "China Garden Restaurant", "longitude": -112.099716, "full_address": "17201 N 19th Ave\nPhoenix, AZ 85023", "stars": 3.5, "latitude": 33.6419531}, "TqHTtjPANCBKGsjGBjDoQQ": {"review_count": 80, "name": "NYPD Pizza", "longitude": -112.040116, "full_address": "1949 E Camelback Rd\nSte 144\nPhoenix, AZ 85016", "stars": 4.0, "latitude": 33.507557}, "yqTromUJgF6Ll7VVo4iF0A": {"review_count": 33, "name": "Five Guys Burgers and Fries", "longitude": -112.3531229, "full_address": "13714 W Bell Rd\nSte 2\nSurprise, AZ 85374", "stars": 3.5, "latitude": 33.6389181}, "pWPzxPPXN4IqI7RUU_8KKw": {"review_count": 20, "name": "New Tokyo Food Market", "longitude": -112.1333594, "full_address": "3435 W Northern Ave\nPhoenix, AZ 85051", "stars": 4.5, "latitude": 33.5529745}, "yypKLRJxSjR2uNaTS_O6pw": {"review_count": 124, "name": "Humble Pie", "longitude": -111.924627, "full_address": "6149 N Scottsdale Rd\nScottsdale, AZ 85250", "stars": 3.5, "latitude": 33.5266038}, "mTjHcl-pkNO4iOKY8rVHPw": {"review_count": 28, "name": "Burger Factory", "longitude": -112.0834721, "full_address": "702 W Osborn Rd\nPhoenix, AZ 85013", "stars": 3.5, "latitude": 33.4877201}, "lAGDe38li38fyf971CslFg": {"review_count": 55, "name": "Dragon Palace", "longitude": -112.0124654, "full_address": "13825 N 32nd St\nPhoenix, AZ 85032", "stars": 4.0, "latitude": 33.6123075}, "6md4A90THda31wTg1bB3hg": {"review_count": 140, "name": "Spinato's Pizza", "longitude": -111.899966, "full_address": "227 S Smith Rd\nTempe, AZ 85281", "stars": 4.5, "latitude": 33.427634}, "NPxgifo782JgvfIDyDOTnQ": {"review_count": 5, "name": "New China Super Buffet", "longitude": -112.294278, "full_address": "10801 Grand Ave\nSun City, AZ 85351", "stars": 1.5, "latitude": 33.603332}, "ZRJwVLyzEJq1VAihDhYiow": {"review_count": 102, "name": "Spinato's Pizzeria", "longitude": -111.9787576, "full_address": "4848 E Chandler Blvd\nPhoenix, AZ 85044", "stars": 4.0, "latitude": 33.3056067}, "JN2qXIuDXnV2d8WnSqd28A": {"review_count": 34, "name": "Streets of New York", "longitude": -112.0701553, "full_address": "214 E Camelback Rd\nPhoenix, AZ 85012", "stars": 3.5, "latitude": 33.5093547}, "uKSX1n1RoAzGq4bV8GPHVg": {"review_count": 461, "name": "St Francis Restaurant", "longitude": -112.0718179, "full_address": "111 E Camelback Rd\nPhoenix, AZ 85012", "stars": 4.0, "latitude": 33.5092756}, "s685YHkO3lcId41bjp5KOw": {"review_count": 46, "name": "LAMP Pizzeria", "longitude": -111.888462, "full_address": "8900 E Pinnacle Peak Rd\nSte C1\nScottsdale, AZ 85255", "stars": 4.0, "latitude": 33.700033}, "8lKiCgPn_eonn5CNsffabw": {"review_count": 64, "name": "Grimaldi's Pizzeria", "longitude": -111.925553, "full_address": "15147 N Scottsdale Rd\nSte 135\nScottsdale, AZ 85254", "stars": 3.5, "latitude": 33.6235377}, "AkOruz5CrCxUmXe1p_WoRg": {"review_count": 309, "name": "CherryBlossom Noodle Cafe", "longitude": -112.0608177, "full_address": "914 E Camelback Rd\nPhoenix, AZ 85014", "stars": 4.0, "latitude": 33.5093372}, "cN6aBxe2mQvrQlzk26LyRQ": {"review_count": 281, "name": "Durant's", "longitude": -112.0736348, "full_address": "2611 N Central Ave\nPhoenix, AZ 85004", "stars": 4.0, "latitude": 33.4772147}, "obEv3-i-pr6oPlya2IY5mg": {"review_count": 18, "name": "Royal Buffet", "longitude": -111.887397, "full_address": "2530 W Chandler Blvd\nChandler, AZ 85224", "stars": 3.5, "latitude": 33.306359}, "TgxDGx7L_JICWbuBUCGVqw": {"review_count": 55, "name": "Fajitas A Sizzlin Celebration", "longitude": -112.1164397, "full_address": "9841 N Black Canyon Hwy\nPhoenix, AZ 85021", "stars": 3.5, "latitude": 33.5763551}, "jB1fFl1eIEPYe5FLpCZ5Jg": {"review_count": 49, "name": "Sacks Art of Sandwicherie", "longitude": -111.9513564, "full_address": "839 W University Dr\nTempe, AZ 85281", "stars": 4.0, "latitude": 33.4217517}, "DDnmNTvIIQu2t3WZ2EQx-w": {"review_count": 139, "name": "Sierra Bonita Grill", "longitude": -112.064759, "full_address": "6933 N 7th St\nPhoenix, AZ 85014", "stars": 4.0, "latitude": 33.538748}, "-AAig9FG0s8gYE4f8GfowQ": {"review_count": 278, "name": "Pane Bianco", "longitude": -112.0739689, "full_address": "4404 N Central Ave\nPhoenix, AZ 85012", "stars": 4.5, "latitude": 33.5006532}, "VKNl2-aF4n1x7lPVyU-Mag": {"review_count": 113, "name": "Spotted Donkey Cantina", "longitude": -111.8987064, "full_address": "Village At Hayden\n8220 N Hayden Rd, Ste C111\nScottsdale, AZ 85258", "stars": 3.5, "latitude": 33.5560781}, "X5QTGpPfqXFtmtizsGAksw": {"review_count": 108, "name": "Mucho Gusto Taqueria Mexican Bistro", "longitude": -111.9476151, "full_address": "603 W University Dr\nTempe, AZ 85281", "stars": 3.5, "latitude": 33.4217383}, "cVejKU_SrdbvzIbQ4oPV0A": {"review_count": 189, "name": "Mi Patio Mexican Restaurant", "longitude": -112.0830342, "full_address": "3347 N 7th Ave\nPhoenix, AZ 85013", "stars": 4.0, "latitude": 33.4874748}, "SOHp2b8quJEitFeuO58Syw": {"review_count": 36, "name": "Fish Market Restaurant", "longitude": -112.044949, "full_address": "1720 E Camelback Rd\nPhoenix, AZ 85016", "stars": 3.5, "latitude": 33.509927}, "qVN-P0aov4z5oknS12Cq1g": {"review_count": 45, "name": "Five Guys Burgers and Fries", "longitude": -112.0744503, "full_address": "50 W Jefferson St\nPhoenix, AZ 85003", "stars": 3.0, "latitude": 33.4471783}, "G5SASWuL_CVxpgwXXGC4DA": {"review_count": 50, "name": "Stingray Sushi", "longitude": -111.9255427, "full_address": "15169 N Scottsdale Rd\nScottsdale, AZ 85260", "stars": 3.5, "latitude": 33.6237191}, "9Y3aQAVITkEJYe5vLZr13w": {"review_count": 290, "name": "The Breakfast Club", "longitude": -111.9264093, "full_address": "4400 N Scottsdale Rd\nScottsdale, AZ 85251", "stars": 3.5, "latitude": 33.500545}, "bOB11LVavtN9PWTNwR52Tw": {"review_count": 108, "name": "Barrio Queen", "longitude": -111.928258, "full_address": "7114 E Stetson Dr\nScottsdale, AZ 85251", "stars": 3.0, "latitude": 33.498915}, "GAPqG0WNBBidKeZTMpEZ-w": {"review_count": 158, "name": "Local Breeze", "longitude": -112.0791022, "full_address": "606 N 4th Ave\nPhoenix, AZ 85003", "stars": 4.0, "latitude": 33.4549678}, "m3EKlucZuwnOazLrRfnWaQ": {"review_count": 62, "name": "Al's Beef", "longitude": -111.8980932, "full_address": "14740 N Northsight Blvd\nScottsdale, AZ 85260", "stars": 3.5, "latitude": 33.619412}, "ar90fbRbQtiyZLtwjwwXUg": {"review_count": 81, "name": "Donovan's Steak and Chop House", "longitude": -112.015207, "full_address": "3101 E Camelback Rd\nPhoenix, AZ 85016", "stars": 4.0, "latitude": 33.509554}, "IwhkOh4fPsiU7TThIsz6Og": {"review_count": 34, "name": "Bamboo Grille", "longitude": -112.124526977539, "full_address": "3049 W Agua Fria Fwy\nSte B-3\nPhoenix, AZ 85027", "stars": 3.0, "latitude": 33.6664543151855}, "x-lEn6WxwqSNrdYdgjRsyw": {"review_count": 85, "name": "Dilly's Deli", "longitude": -111.94542, "full_address": "414 W University Dr\nTempe, AZ 85281", "stars": 4.0, "latitude": 33.4221126}, "bzDs0u8I-z231QVdIQWkrA": {"review_count": 268, "name": "Los Reyes de la Torta", "longitude": -112.0657374, "full_address": "9230 N 7th St\nPhoenix, AZ 85020", "stars": 4.0, "latitude": 33.5708131}, "QkyN2vqQidQhotvOtPIrkw": {"review_count": 90, "name": "Humble Pie", "longitude": -112.0649235, "full_address": "2333 N 7th St\nPhoenix, AZ 85006", "stars": 3.5, "latitude": 33.4743013}, "_AvHni-xdRHmZ3XfYHwGkg": {"review_count": 144, "name": "Posh Improvisational Cuisine", "longitude": -111.926536, "full_address": "7167 E Rancho Vista Dr\nUnit 111\nScottsdale, AZ 85251", "stars": 4.0, "latitude": 33.506941}, "AryNioF9fxl8RYGiIE7fSA": {"review_count": 98, "name": "Sauce", "longitude": -111.9276185, "full_address": "7135 E Camelback Rd\nSuite 160\nScottsdale, AZ 85251", "stars": 3.5, "latitude": 33.5019817}, "-Ogv7rpcgUHkFaSy3vD8Sw": {"review_count": 61, "name": "Hong Kong Gourmet Buffet", "longitude": -111.978392, "full_address": "4909 E Chandler Blvd\nPhoenix, AZ 85048", "stars": 4.0, "latitude": 33.304138}, "O-Xa9GCFWI65YiBD5Jw_hA": {"review_count": 276, "name": "Mastro's City Hall Steakhouse", "longitude": -111.9313599, "full_address": "6991 E Camelback Rd\nScottsdale, AZ 85251", "stars": 4.5, "latitude": 33.50201}, "zsWJEyP8YyJkux0muGtiVw": {"review_count": 65, "name": "House Modern Sushi Restaurant", "longitude": -111.803119, "full_address": "1641 S Stapley Dr\nSte 103\nMesa, AZ 85204", "stars": 4.5, "latitude": 33.384163}, "YL_EiYALmGUd1lm5HZgL3w": {"review_count": 90, "name": "Someburros", "longitude": -111.9388855672, "full_address": "101 E Baseline Rd\nTempe, AZ 85283", "stars": 3.5, "latitude": 33.377697734012}, "PlcCjELzSI3SqX7mPF5cCw": {"review_count": 91, "name": "SakeBomber Sushi & Grill", "longitude": -111.911549, "full_address": "1705 E Broadway Rd\nTempe, AZ 85282", "stars": 3.5, "latitude": 33.407088}, "PNrOTfMmE0CJFV9YwSLzYw": {"review_count": 58, "name": "Golden Gate Chinese Restaurant", "longitude": -111.8917862, "full_address": "2640 W Baseline Rd\nMesa, AZ 85202", "stars": 4.0, "latitude": 33.3789539}, "d_8bMNQd0mesbEUeq1U2kQ": {"review_count": 47, "name": "Star of India", "longitude": -111.9945753, "full_address": "4025 E Chandler Blvd\nSte 14\nPhoenix, AZ 85048", "stars": 4.0, "latitude": 33.3044612}, "P4ORLZJfbN9yExjg13gVMw": {"review_count": 42, "name": "La Famiglia", "longitude": -111.856635, "full_address": "2055 N Alma School Rd\nSte 26\nChandler, AZ 85224", "stars": 4.0, "latitude": 33.336677}, "Xo9Im4LmIhQrzJcO4R3ZbA": {"review_count": 107, "name": "Rito's Market & Mexican Take Out", "longitude": -112.0520855, "full_address": "907 N 14th St\nPhoenix, AZ 85006", "stars": 4.5, "latitude": 33.457939}, "le1IsRLrTq2Xo78RyFpsnw": {"review_count": 29, "name": "Jimmy John's", "longitude": -111.924591, "full_address": "15425 N. Scottsdale Rd\nScottsdale, AZ 85260", "stars": 3.5, "latitude": 33.626109}, "EfXg0Bnv4RAbP4xfgxSiiw": {"review_count": 50, "name": "Brosenbrus Cafe", "longitude": -111.9249893, "full_address": "922 E Apache Blvd\nTempe, AZ 85281", "stars": 4.5, "latitude": 33.4149286}, "GqtMJxq5-7Xp1ZXXmahLaA": {"review_count": 39, "name": "Sacks Art of Sandwicherie", "longitude": -112.077889, "full_address": "231 W Thomas Rd\nPhoenix, AZ 85013", "stars": 3.5, "latitude": 33.4802381}, "e9nN4XxjdHj4qtKCOPq_vg": {"review_count": 192, "name": "Lee's Sandwiches", "longitude": -111.87479, "full_address": "1901 W Warner Rd\nChandler, AZ 85224", "stars": 4.0, "latitude": 33.334712}, "V5QdxePG-pGPXVPHSLLM9A": {"review_count": 99, "name": "Urban Beans", "longitude": -112.055538, "full_address": "3508 N 7th St\nSte 100\nPhoenix, AZ 85014", "stars": 4.0, "latitude": 33.511525}, "zxqvU415r_RtZRKDtdbIKQ": {"review_count": 72, "name": "Jade Palace", "longitude": -111.883526, "full_address": "9160 E Shea Blvd\nSte 101\nScottsdale, AZ 85260", "stars": 3.5, "latitude": 33.58348}, "8m08a9xJKmANwmeuR-0bPA": {"review_count": 100, "name": "Bourbon Steak", "longitude": -111.9170571, "full_address": "7575 E Princess Dr\nScottsdale, AZ 85255", "stars": 4.0, "latitude": 33.6459785}, "b5cEoKR8iQliq-yT2_O0LQ": {"review_count": 262, "name": "Carlsbad Tavern", "longitude": -111.908738, "full_address": "3313 N Hayden Rd\nScottsdale, AZ 85251", "stars": 4.0, "latitude": 33.4869182}, "TxxhWPMILH40JlZbX7KNHA": {"review_count": 11, "name": "Cousins Subs", "longitude": -111.8865712, "full_address": "10240 N 90th Street\nSuite 105\nScottsdale, AZ 85258", "stars": 3.0, "latitude": 33.5792084}, "Lnohr9bpCbHNsomazXDg-w": {"review_count": 229, "name": "Chino Bandido", "longitude": -111.873637, "full_address": "1825 W Chandler Blvd\nChandler, AZ 85224", "stars": 3.5, "latitude": 33.304492}, "LmVcYycG_VI3S6RNgqiriw": {"review_count": 41, "name": "Carrabba's Italian Grill", "longitude": -112.1810524, "full_address": "5646 West Bell Road\nGlendale, AZ 85308", "stars": 3.5, "latitude": 33.6389129}, "24V8QQWO6VaVggHdxjQQ_A": {"review_count": 180, "name": "Arcadia Farms Cafe", "longitude": -111.92975, "full_address": "7014 E 1st Ave\nScottsdale, AZ 85251", "stars": 4.0, "latitude": 33.494247}, "FFCkoA_L3cqYXtHtLyvxwA": {"review_count": 75, "name": "That's a Wrap", "longitude": -112.063826, "full_address": "800 E Camelback Rd\nPhoenix, AZ 85014", "stars": 4.0, "latitude": 33.5095}, "GaeokhqmZYuPr7i1EZtnHA": {"review_count": 65, "name": "Pinnacle Peak Patio", "longitude": -111.8531068, "full_address": "10426 E Jomax Rd\nScottsdale, AZ 85262", "stars": 3.5, "latitude": 33.726807}, "Gq092IH6eZqhAXwtXcwc6A": {"review_count": 283, "name": "SanTan Brewing Company", "longitude": -111.842532, "full_address": "8 S San Marcos Plz\nChandler, AZ 85225", "stars": 4.0, "latitude": 33.303233}, "5-X03Zc0nN7U5eoe8uFUdw": {"review_count": 128, "name": "Coronado Cafe", "longitude": -112.0650649, "full_address": "2201 N 7th St\nPhoenix, AZ 85006", "stars": 4.0, "latitude": 33.4712477}, "2q1JLqJ7IIYXONhOKJKoGA": {"review_count": 15, "name": "Mandarin Super Buffet", "longitude": -112.0911674, "full_address": "1501 W Bethany Home Rd\nPhoenix, AZ 85015", "stars": 3.5, "latitude": 33.523965}, "qW9UysjJw3y3CwEbzruEEw": {"review_count": 86, "name": "Elmer's Tacos", "longitude": -111.8411708, "full_address": "355 N Arizona Ave\nChandler, AZ 85225", "stars": 4.0, "latitude": 33.3090064}, "2BWTKRkPNgTTZNWGMkmYRw": {"review_count": 48, "name": "Coal Burger", "longitude": -111.964138, "full_address": "7131 W Ray Rd\nSte 25\nChandler, AZ 85226", "stars": 3.0, "latitude": 33.317906}, "-sC66z4SO3tR7nFCjfQwuQ": {"review_count": 549, "name": "Gallo Blanco Cafe", "longitude": -112.079081, "full_address": "401 W Clarendon Ave\nPhoenix, AZ 85013", "stars": 4.0, "latitude": 33.49112}, "dYf5eX8oK5ughIeghqifRQ": {"review_count": 8, "name": "McDonald's", "longitude": -111.926065, "full_address": "1205 S Rural Rd\nTempe, AZ 85280", "stars": 2.0, "latitude": 33.4157667}, "YeT5QLt9C4cum_F4aKF7bQ": {"review_count": 4, "name": "China City Super Buffet", "longitude": -111.701411, "full_address": "6005 E Southern Ave\nMesa, AZ 85206", "stars": 3.5, "latitude": 33.393419}, "Z5v1F-tAV897ZmM32N0wfQ": {"review_count": 41, "name": "New India Bazaar", "longitude": -112.065637, "full_address": "2544 N 7th St\nPhoenix, AZ 85006", "stars": 4.0, "latitude": 33.476084}, "FV0BkoGOd3Yu_eJnXY15ZA": {"review_count": 349, "name": "Cowboy Ciao", "longitude": -111.927402, "full_address": "7133 E Stetson Dr\nSte 1\nScottsdale, AZ 85251", "stars": 4.0, "latitude": 33.499499}, "--BlvDO_RG2yElKu9XA1_g": {"review_count": 37, "name": "Asian Island", "longitude": -111.8983054, "full_address": "14870 N Northsight Blvd\nSte 103\nScottsdale, AZ 85260", "stars": 4.0, "latitude": 33.621463}, "x4L42igQPv4TFlqGR2Wthg": {"review_count": 83, "name": "Grimaldi's", "longitude": -111.8904749, "full_address": "20715 N Pima Rd\nScottsdale, AZ 85255", "stars": 4.0, "latitude": 33.6729823}, "YQvg0JCGRFUkb6reMMf3Iw": {"review_count": 303, "name": "La Bocca Urban Pizzeria + Wine Bar", "longitude": -111.939622163773, "full_address": "699 S Mill Ave\nTempe, AZ 85281", "stars": 4.0, "latitude": 33.4234408327431}, "4AKcmN--0hbF0kX9pg8scg": {"review_count": 213, "name": "The Chuck Box", "longitude": -111.9366872, "full_address": "202 E University Dr\nTempe, AZ 85281", "stars": 4.0, "latitude": 33.4219869}, "RRGRruNX4o6689EB48z3-A": {"review_count": 105, "name": "BLT Steak", "longitude": -111.965872, "full_address": "5402 E Lincoln Dr\nScottsdale, AZ 85256", "stars": 4.0, "latitude": 33.533525}, "mqQwChPNN4o4DhAzaGntIA": {"review_count": 179, "name": "The Fry Bread House", "longitude": -112.0839659, "full_address": "4140 N 7th Ave\nPhoenix, AZ 85013", "stars": 4.0, "latitude": 33.4964751}, "80tJzUERJjRDjpxUXy4M6w": {"review_count": 23, "name": "Outback Steakhouse", "longitude": -112.1796613, "full_address": "5605 W. Bell Road\nGlendale, AZ 85308", "stars": 4.0, "latitude": 33.6385744}, "OEQMqI-duBA1gbBFzi7BPw": {"review_count": 18, "name": "Fuddruckers", "longitude": -112.225168, "full_address": "7704 W Bell Rd\nGlendale, AZ 85308", "stars": 3.0, "latitude": 33.639331}, "lVHtVCyFJOqAH0ltn7pLuw": {"review_count": 130, "name": "Sushi Eye", "longitude": -111.978279, "full_address": "4855 E Warner Rd\nSte A29\nPhoenix, AZ 85044", "stars": 3.5, "latitude": 33.331773}, "o-OV2LkJxpcCHmI_d4TZiQ": {"review_count": 108, "name": "Oregano's Pizza Bistro", "longitude": -111.7898601, "full_address": "328 N Gilbert Rd\nGilbert, AZ 85234", "stars": 4.0, "latitude": 33.3559111}, "jfDBaBgwINrGYAo8p2MJ4g": {"review_count": 148, "name": "China Magic Noodle House", "longitude": -111.876337, "full_address": "2015 N Dobson Rd\nChandler, AZ 85224", "stars": 4.0, "latitude": 33.3354566}, "BINYfrtGp3A4w0d5E7kbYw": {"review_count": 60, "name": "Otaku", "longitude": -111.7898246, "full_address": "2430 S Gilbert Rd\nChandler, AZ 85286", "stars": 3.5, "latitude": 33.2711537}, "06kfoeRs9Acj82Yl3i9p_w": {"review_count": 45, "name": "Wildflower Bread Company", "longitude": -111.757599, "full_address": "3425 E Baseline Rd\nSte 101\nGilbert, AZ 85234", "stars": 4.5, "latitude": 33.3786739}, "pmIJn8K3offcYUsrFCWAaQ": {"review_count": 36, "name": "Guido's Chicago Meat & Deli", "longitude": -111.9259207, "full_address": "10893 N Scottsdale Rd\nScottsdale, AZ 85254", "stars": 4.0, "latitude": 33.5852839}, "CNvPqN9pa5aJRn-Npcqgdg": {"review_count": 64, "name": "Original Wineburger", "longitude": -112.0995348, "full_address": "6027 N 19th Ave\nPhoenix, AZ 85015", "stars": 3.5, "latitude": 33.5252672}, "sjO66SM-zICJr5VyumMuqA": {"review_count": 36, "name": "Cafe Ga Hyang", "longitude": -112.1528921, "full_address": "4362 W. Olive Ave\nGlendale, AZ 85302", "stars": 4.5, "latitude": 33.5674705}, "RmA5zN-Bs89lsTuY6v8W3Q": {"review_count": 123, "name": "Pearl Sushi Lounge & Bomber Bar", "longitude": -111.9223075, "full_address": "4252 N Drinkwater Blvd\nSte B\nScottsdale, AZ 85251", "stars": 3.0, "latitude": 33.4973896}, "z4KFTJQsAdxqMZA7Fx0A9A": {"review_count": 85, "name": "C-Fu Gourmet Restaurant", "longitude": -111.877429, "full_address": "2051 W Warner Rd\nSte 13\nChandler, AZ 85224", "stars": 3.0, "latitude": 33.3350458}, "XMRj865sZBPWCI7tx0uBWw": {"review_count": 120, "name": "Asian Cafe Express", "longitude": -111.873436, "full_address": "1911 W Main St\nSte 3\nMesa, AZ 85201", "stars": 4.0, "latitude": 33.413324}, "IWwt0vm8lYbVoyGSPd2Z9A": {"review_count": 154, "name": "Rudy's Country Store & Bar-B-Q", "longitude": -111.9677833, "full_address": "7300 W Chandler Blvd\nChandler, AZ 85226", "stars": 4.0, "latitude": 33.3057949}, "z3yFuLVrmH-3RJruPEMYKw": {"review_count": 270, "name": "Defalco's Italian Grocery", "longitude": -111.9270986, "full_address": "2334 N Scottsdale Rd\nSte A133\nScottsdale, AZ 85257", "stars": 4.5, "latitude": 33.4740662}, "e34tIpveepWkpvOuv_boqw": {"review_count": 126, "name": "Centurion", "longitude": -112.077177, "full_address": "214 W Roosevelt St\nSte C-1\nPhoenix, AZ 85003", "stars": 4.0, "latitude": 33.458871}, "yJMLD-6AggZNdC-GonVBsA": {"review_count": 109, "name": "Binkley's", "longitude": -111.9317707, "full_address": "6920 E Cave Creek Rd\nCave Creek, AZ 85331", "stars": 4.5, "latitude": 33.8303701}, "BESmH-lmMm34_EefL8X9fQ": {"review_count": 87, "name": "Comedor Guadalajara", "longitude": -112.0737828, "full_address": "1830 S Central Ave\nPhoenix, AZ 85004", "stars": 4.0, "latitude": 33.4292429}, "cfy-C6XNFt-F-dCQfK7EDQ": {"review_count": 65, "name": "Mikado Sushi", "longitude": -111.857235, "full_address": "3125 S Alma School Rd\nChandler, AZ 85248", "stars": 4.0, "latitude": 33.261388}, "Oc-F6O91vOe3T8iOsCBB8Q": {"review_count": 75, "name": "Tomo Japanese Cuisine", "longitude": -112.341878, "full_address": "1550 N Dysart Rd\nSte  A7-9\nGoodyear, AZ 85395", "stars": 4.0, "latitude": 33.463543}, "wNUea3IXZWD63bbOQaOH-g": {"review_count": 163, "name": "Stingray Sushi", "longitude": -112.0257401, "full_address": "2574 E Camelback Rd\nPhoenix, AZ 85016", "stars": 3.0, "latitude": 33.5096045}, "kjVyy6q0UY620sEy56kJ3g": {"review_count": 5, "name": "Souper Salad", "longitude": -111.8026941, "full_address": "1649 S Stapley Dr\nMesa, AZ 85204", "stars": 2.0, "latitude": 33.38323}, "mpkqgw2QgMQUmhXdPwGGww": {"review_count": 5, "name": "Sun Star Buffet", "longitude": -112.1328719, "full_address": "3420 W Van Buren St\nPhoenix, AZ 85009", "stars": 3.5, "latitude": 33.4513886}, "uxzYF6A_PLVhIraINJfDbw": {"review_count": 5, "name": "India Gate", "longitude": -111.724168, "full_address": "1674 N Higley Rd\nSte 104\nGilbert, AZ 85206", "stars": 2.0, "latitude": 33.381279}, "jbKVbSz51F8IcewsiRQu4A": {"review_count": 140, "name": "Golden Buddha", "longitude": -111.9878697, "full_address": "668 N 44th St\nPhoenix, AZ 85008", "stars": 3.0, "latitude": 33.4552907}, "zOJdahdaaLz7DpfdIucslg": {"review_count": 31, "name": "Pei Wei Asian Diner", "longitude": -112.203627, "full_address": "20022 N 67th Ave\nGlendale, AZ 85308", "stars": 3.5, "latitude": 33.666586}, "7cP7WFmWiTVh-raIL3N_Vw": {"review_count": 224, "name": "The Roosevelt", "longitude": -112.0699779, "full_address": "816 N 3rd St\nPhoenix, AZ 85004", "stars": 4.0, "latitude": 33.4571599}, "CSoURupWEyuyzkjMOExKPg": {"review_count": 103, "name": "North Fattoria Italiana", "longitude": -111.9953195, "full_address": "North Arcadia\n4925 N 40th St\nPhoenix, AZ 85018", "stars": 4.0, "latitude": 33.5087368}, "NZ4V7rl7nevZPOdySgg-iw": {"review_count": 15, "name": "The Buffet", "longitude": -112.0505478, "full_address": "15406 Maricopa Rd\nMaricopa, AZ 85139", "stars": 3.0, "latitude": 33.0241115}, "hh2lP4_2N-tk_OxmaTf_qA": {"review_count": 94, "name": "J & G Steakhouse", "longitude": -111.9514403, "full_address": "The Phoenician\n6000 E Camelback Rd\nScottsdale, AZ 85251", "stars": 4.0, "latitude": 33.5019519}, "un3KC2gyMrSG6yqjVRctXg": {"review_count": 117, "name": "Shimogamo", "longitude": -111.877431, "full_address": "2051 W Warner Rd\nSte 14\nChandler, AZ 85224", "stars": 4.0, "latitude": 33.3350308}, "I4bSn5gXsHuSPu7L-d_8nQ": {"review_count": 323, "name": "Beckett's Table", "longitude": -112.0012318, "full_address": "3717 E Indian School Rd\nPhoenix, AZ 85018", "stars": 4.0, "latitude": 33.4951366}, "CqKiF2X0_4erH02-CUiweQ": {"review_count": 34, "name": "J & K Gourmet", "longitude": -111.756019592285, "full_address": "2540 S Val Vista Dr\nSte 106\nGilbert, AZ 85296", "stars": 4.0, "latitude": 33.3048512833752}, "uZdGSJdWbQpLDsuV9mP79g": {"review_count": 11, "name": "Culver's", "longitude": -111.893676720267, "full_address": "8668 E Shea Blvd\nScottsdale, AZ 85260", "stars": 3.0, "latitude": 33.5827091181461}, "m9Wqqma30o-hH2fAX7dnug": {"review_count": 69, "name": "Desert Jade", "longitude": -112.0118398, "full_address": "3215 E Indian School Rd\nPhoenix, AZ 85018", "stars": 4.0, "latitude": 33.4951447}, "Kur7YGwuw6CqnqEypNrOvQ": {"review_count": 42, "name": "Fujiya Market", "longitude": -111.960264, "full_address": "1335 W University Dr\nSte 5\nTempe, AZ 85281", "stars": 4.0, "latitude": 33.42183}, "V6BYjHM9SnXscfkln3hCdA": {"review_count": 304, "name": "Orange Table", "longitude": -111.924118995667, "full_address": "7373 E Scottsdale Mall\nSte 6\nScottsdale, AZ 85251", "stars": 4.0, "latitude": 33.4925020001075}, "KO9CpaSPOoqm0iCWm5scmg": {"review_count": 65, "name": "Sandwich Club", "longitude": -111.9264472, "full_address": "4020 N Scottsdale Rd\nSte 102\nScottsdale, AZ 85251", "stars": 4.0, "latitude": 33.4942423}, "Y_Y91oeUrIwYa18F8ey5NQ": {"review_count": 65, "name": "Culver's", "longitude": -111.839625, "full_address": "1909 S Country Club Dr\nMesa, AZ 85210", "stars": 4.0, "latitude": 33.38003}, "0db71MbrvcJnyk71COCJBg": {"review_count": 121, "name": "Great Wall Cuisine", "longitude": -112.134201, "full_address": "5057 N 35th Ave\nPhoenix, AZ 85017", "stars": 3.5, "latitude": 33.5108735}, "ZG4oIFBRlXyaF5F9L3dzxg": {"review_count": 48, "name": "Luke's Of Chicago", "longitude": -111.892747879028, "full_address": "15223 N Northsight Blvd\nScottsdale, AZ 85260", "stars": 3.5, "latitude": 33.6204713615953}, "rHFWPJML2WlGbad0Tqevxw": {"review_count": 36, "name": "Ichi Ban Japanese", "longitude": -111.859257, "full_address": "2015 S Alma School Rd\nMesa, AZ 85210", "stars": 3.0, "latitude": 33.37829}, "9BJ5h9X1krpXFjKj0a6wbg": {"review_count": 230, "name": "Dick's Hideaway", "longitude": -112.0474855, "full_address": "6008 N 16th St\nPhoenix, AZ 85014", "stars": 4.5, "latitude": 33.5242874}, "winRNt7prallDbpaDMS9Ig": {"review_count": 111, "name": "Grimaldi's Coal Brick-Oven Pizza", "longitude": -111.7435862, "full_address": "2168 E Williams Field Rd\nGilbert, AZ 85295", "stars": 4.0, "latitude": 33.3086797}, "E4b5OC_6mZ0V7B6Nyjncsg": {"review_count": 76, "name": "Tottie's Asian Fusion", "longitude": -111.9258733, "full_address": "6204 N Scottsdale Rd\nSte 106\nParadise Valley, AZ 85253", "stars": 4.0, "latitude": 33.5285509}, "AX8lx9wHNYT45lyd7pxaYw": {"review_count": 89, "name": "Ristorante Giuseppe", "longitude": -111.9271921, "full_address": "13610 N Scottsdale Rd\nSte 9\nScottsdale, AZ 85254", "stars": 4.0, "latitude": 33.6097989}, "4meJyPOhuAKzywUJTmu2hw": {"review_count": 69, "name": "The Good Egg", "longitude": -112.069119, "full_address": "Park Central Mall\n3110 N Central Ave\nPhoenix, AZ 85012", "stars": 3.0, "latitude": 33.511391}, "gI4jThFNwy73SzaNvi-1dw": {"review_count": 77, "name": "Ling & Louie's Asian Bar and Grill", "longitude": -111.879218, "full_address": "9397 E Shea Blvd\nSte 125\nScottsdale, AZ 85260", "stars": 3.5, "latitude": 33.581511}, "HMUvbAHRnbAczNrYy8e5MA": {"review_count": 138, "name": "Cheba Hut", "longitude": -111.951494, "full_address": "960 W University Dr\nSte 108\nTempe, AZ 85281", "stars": 3.5, "latitude": 33.422728}, "kS0EzDlPx_Mdm_qNHU2gdQ": {"review_count": 41, "name": "Cheeburger Cheeburger", "longitude": -111.9043028, "full_address": "2000 E Rio Salado Pkwy\nTempe, AZ 85281", "stars": 3.5, "latitude": 33.4329724}, "WS1z1OAR0tRl4FsjdTGUFQ": {"review_count": 220, "name": "The Vig Uptown", "longitude": -112.0474619, "full_address": "6015 N 16th St\nPhoenix, AZ 85014", "stars": 4.0, "latitude": 33.5242704}, "jnzROxEjNkgeo5Ju3F8qzQ": {"review_count": 145, "name": "El Encanto", "longitude": -111.9453694, "full_address": "6248 Cave Creek Rd\nCave Creek, AZ 85331", "stars": 3.5, "latitude": 33.8321973}, "DxUn-ukNL27GOuwjnFGFKA": {"review_count": 185, "name": "Hiro Sushi", "longitude": -111.886606, "full_address": "9393 N 90th St\nSte 116\nScottsdale, AZ 85258", "stars": 4.5, "latitude": 33.5705669}, "Aalbsk2pFczUedpRWKUyPw": {"review_count": 31, "name": "Philly's Famous", "longitude": -111.8592538, "full_address": "1250 N Alma School Rd\nChandler, AZ 85224", "stars": 4.0, "latitude": 33.3228773}, "5_tsOGJQDDl9iKOr8K79Rw": {"review_count": 66, "name": "Blu Burger Grille", "longitude": -112.2705607, "full_address": "9828 W Northern Ave\nSte 1705\nPeoria, AZ 85345", "stars": 4.0, "latitude": 33.5514432}, "Ul1mS4EA2Q8DGyLB7gQXJA": {"review_count": 43, "name": "Beijing Restaurant", "longitude": -111.8602154, "full_address": "2040 S Alma School Rd\nSte 13\nChandler, AZ 85286", "stars": 4.0, "latitude": 33.2748213}, "TMZP6Kzkc-FytzgbgIC9JA": {"review_count": 100, "name": "Benihana", "longitude": -111.8960397, "full_address": "3025 W Chandler Blvd\nChandler, AZ 85226", "stars": 3.5, "latitude": 33.3057308}, "PwtYeGu-19v9bU4nbP9UbA": {"review_count": 39, "name": "Calabria Italian Kitchen", "longitude": -112.0649071, "full_address": "2605 N 7th St\nPhoenix, AZ 85006", "stars": 4.0, "latitude": 33.4770399}, "hrOsdyai-9B91cGjBspHqw": {"review_count": 38, "name": "Tao Garden", "longitude": -111.8589887, "full_address": "2050 N Alma School Rd\nChandler, AZ 85224", "stars": 4.0, "latitude": 33.3366819}, "eHcQzL5eebqvKrLW5q283w": {"review_count": 48, "name": "Capriottis Sandwich Shop", "longitude": -111.891906, "full_address": "15227 N 87th St\nScottsdale, AZ 85260", "stars": 3.0, "latitude": 33.62342}, "1Duul3qCnLrNak1Np-iHfw": {"review_count": 157, "name": "Pita Jungle", "longitude": -111.874965, "full_address": "1949 W. Ray Rd.\nChandler, AZ 85224", "stars": 4.0, "latitude": 33.319395}, "RtApx92iFX4n-e1VlQlkmQ": {"review_count": 11, "name": "Copper Kettle-Salads Balti & Taandoori Grill", "longitude": -111.9219044, "full_address": "1050 E Lemon St\nTempe, AZ 85281", "stars": 3.0, "latitude": 33.4167493}, "CMvCbtkcHH9Gp0S3w1_aQA": {"review_count": 21, "name": "Hong Kong Bistro", "longitude": -111.789879798889, "full_address": "4990 S Gilbert Rd\nSte 8\nChandler, AZ 85249", "stars": 3.5, "latitude": 33.2341019292333}, "35Om8exyCLHWeijbxDPB1w": {"review_count": 4, "name": "McDonald's", "longitude": -112.082382, "full_address": "626 W Union Hills Dr\nPhoenix, AZ 85027", "stars": 3.0, "latitude": 33.655098}, "kK4AzZ0YWI-U2G-paAL7Fg": {"review_count": 93, "name": "Crust Pizza & Wine Cafe", "longitude": -111.9085317, "full_address": "6989 N Hayden Rd\nSte 9\nScottsdale, AZ 85250", "stars": 4.0, "latitude": 33.5381023}, "ILsZjIibFtGHMDELeX610Q": {"review_count": 63, "name": "Nello's Pizza", "longitude": -111.9082183, "full_address": "1806 E Southern Ave\nTempe, AZ 85282", "stars": 3.5, "latitude": 33.3933063}, "tsom7jUEr_DetH65ZtEc3w": {"review_count": 36, "name": "Capriotti's Sandwich Shop", "longitude": -111.941266, "full_address": "100 W University Dr\nSte 113\nTempe, AZ 85281", "stars": 4.0, "latitude": 33.4219513}, "-4A5xmN21zi_TXnUESauUQ": {"review_count": 255, "name": "D'lish", "longitude": -111.925799, "full_address": "2613 N Scottsdale Rd\nScottsdale, AZ 85257", "stars": 4.5, "latitude": 33.477178}, "Jlih7uC9Bmq8vvtcypSq1A": {"review_count": 22, "name": "Jungle Buffet", "longitude": -111.63408, "full_address": "1749 W Hunt Hwy\nSte 101\nSan Tan Valley, AZ 85143", "stars": 3.0, "latitude": 33.24463}, "e5kc0CQ4R-PCCDgb274gSg": {"review_count": 115, "name": "Sam's Cafe", "longitude": -112.0693177, "full_address": "455 N 3rd St\nSte 114\nPhoenix, AZ 85004", "stars": 3.5, "latitude": 33.4527955}, "ho4Te6bO2tGs56h9PF2vuA": {"review_count": 80, "name": "Los Dos Molinos", "longitude": -112.059954, "full_address": "1010 E Washington St\nPhoenix, AZ 85034", "stars": 3.5, "latitude": 33.448717}, "U605aUo9MJn5vgLfP3yYKg": {"review_count": 39, "name": "Culver's", "longitude": -112.1215834, "full_address": "10225 N 28th Dr\nPhoenix, AZ 85051", "stars": 4.0, "latitude": 33.580542}, "y4bkwSDssQTlFOYZS76K7A": {"review_count": 69, "name": "Pacific Seafood Buffet", "longitude": -112.231662, "full_address": "8172 W Bell Rd\nGlendale, AZ 85308", "stars": 3.5, "latitude": 33.638669}, "3l72FflaaeI0tWEAWN3-gQ": {"review_count": 271, "name": "America's Taco Shop", "longitude": -112.0649272, "full_address": "2041 N 7th St\nPhoenix, AZ 85006", "stars": 3.5, "latitude": 33.4710214}, "oCA2OZcd_Jo_ggVmUx3WVw": {"review_count": 207, "name": "Alice Cooperstown", "longitude": -112.07211772211, "full_address": "141 E Jackson St\nPhoenix, AZ 85004", "stars": 3.5, "latitude": 33.444801984944}, "H91jZ9BiQZZ4_7OlEd6eQg": {"review_count": 82, "name": "The Habit Burger Grill", "longitude": -111.9103938, "full_address": "1817 E Guadalupe Rd\nSte 102\nTempe, AZ 85283", "stars": 3.5, "latitude": 33.3637683}, "qiwajZigq_2twTmYofPmDQ": {"review_count": 26, "name": "Eddie V's Prime Seafood", "longitude": -111.8904749, "full_address": "20715 N Pima Rd\nSte F1\nScottsdale, AZ 85255", "stars": 3.5, "latitude": 33.6729823}, "yZbPvIa_7nt7ekxi31SkUA": {"review_count": 48, "name": "The Saguaro", "longitude": -111.9218306, "full_address": "4000 N Drinkwater Blvd\nScottsdale, AZ 85251", "stars": 4.0, "latitude": 33.4940321}, "zwToyWL4dT1clsFPK9wI2w": {"review_count": 72, "name": "Babbo Italian Eatery", "longitude": -112.2029357, "full_address": "20211 N 67th Ave\nGlendale, AZ 85308", "stars": 3.5, "latitude": 33.6691088}, "DGtOkc0KNTyK8rDkmsPNYw": {"review_count": 91, "name": "The Keg Steakhouse & Bar", "longitude": -111.908025741577, "full_address": "23 S McClintock Dr\nTempe, AZ 85281", "stars": 4.0, "latitude": 33.4237766269266}, "qNoNkF1yJctEs3t40VkX4w": {"review_count": 143, "name": "Blue Adobe Grille", "longitude": -111.84057, "full_address": "144 N Country Club Dr\nMesa, AZ 85201", "stars": 4.0, "latitude": 33.418418}, "NA3tQYxR6Fq5O8nV6u41Tw": {"review_count": 50, "name": "Texas Roadhouse", "longitude": -112.2375029, "full_address": "16079 N Arrowhead Fountains Center Dr\nPeoria, AZ 85382", "stars": 3.5, "latitude": 33.6322642}, "_ODHYjCmrb3W9hIGJI1uaA": {"review_count": 92, "name": "Loving Hut", "longitude": -112.0114032, "full_address": "3239 E Indian School Rd\nPhoenix, AZ 85018", "stars": 3.5, "latitude": 33.4950082}, "YxLiLBNTm4cOg7OlKKLmVw": {"review_count": 81, "name": "Arriba Mexican Grill", "longitude": -111.981558, "full_address": "4649 E Chandler Blvd\nPhoenix, AZ 85048", "stars": 3.0, "latitude": 33.304703}, "6SMQl2vR37HvjYWwSl1V3w": {"review_count": 79, "name": "Royal Taj", "longitude": -111.907542, "full_address": "1845 E Broadway Rd\nSte 101\nTempe, AZ 85282", "stars": 4.0, "latitude": 33.406846}, "yv9gVqydta-y8NHQQ3XPRw": {"review_count": 32, "name": "La Fonda Mexican Restaurant & Cantina", "longitude": -111.906135559082, "full_address": "1831 E Baseline Rd\nTempe, AZ 85283", "stars": 2.5, "latitude": 33.378303527832}, "MY0_6BAzQCu4sqXqwNEFfg": {"review_count": 156, "name": "Mellow Mushroom", "longitude": -111.940813, "full_address": "740 S Mill Ave\nTempe, AZ 85281", "stars": 3.0, "latitude": 33.42263}, "JxVGJ9Nly2FFIs_WpJvkug": {"review_count": 55, "name": "Sauce", "longitude": -111.926272, "full_address": "14418 N Scottsdale Rd\nSuite 181\nScottsdale, AZ 85254", "stars": 4.0, "latitude": 33.6174589}, "8Hn5X1AqgmSLHRG2KgBJBg": {"review_count": 202, "name": "Oregano's Pizza Bistro", "longitude": -111.9466751753, "full_address": "523 W University Dr\nTempe, AZ 85281", "stars": 4.0, "latitude": 33.421617342644}, "18TUn9oiW0k0yB6lheiOvw": {"review_count": 165, "name": "TEXAZ Grill", "longitude": -112.04698, "full_address": "6003 N 16th St\nPhoenix, AZ 85016", "stars": 3.5, "latitude": 33.523984}, "hCtyvahPsEOUb38LKxEQNQ": {"review_count": 63, "name": "Coal Burger", "longitude": -111.9255447, "full_address": "15147 N Scottsdale Rd\nSte 133\nScottsdale, AZ 85260", "stars": 3.0, "latitude": 33.6235418}, "fPExBO1aXA5c4uwlHFyx2Q": {"review_count": 80, "name": "Uncle Sal's Italian Restaurant", "longitude": -111.9102055, "full_address": "3370 N Hayden Rd\nSte 120\nScottsdale, AZ 85251", "stars": 4.0, "latitude": 33.4862787}, "nXKwzVKJCtIGd4HxXgjdnQ": {"review_count": 67, "name": "Saketini Japanese Sushi Bar and Lounge", "longitude": -111.874864, "full_address": "1120 S Dobson Rd\nMesa, AZ 85202", "stars": 3.5, "latitude": 33.3943472}, "cPmbPQepAatet3QMUZaSeg": {"review_count": 23, "name": "Lenny's Burger", "longitude": -112.1145297, "full_address": "2545 W Glendale Ave\nPhoenix, AZ 85051", "stars": 4.0, "latitude": 33.5386433}, "0dIChGWBs9ueUXl0hhkw2w": {"review_count": 79, "name": "Crazy Jim's Restaurant", "longitude": -112.0912518, "full_address": "4041 N 15th Ave\nPhoenix, AZ 85015", "stars": 4.0, "latitude": 33.4943672}, "OVFcGSh4Wu-ss8Iq_fIC-Q": {"review_count": 48, "name": "Rosa's Mexican Grill", "longitude": -111.8234151, "full_address": "328 E University Dr\nMesa, AZ 85201", "stars": 4.0, "latitude": 33.4223528}, "xWKtOLuIOVGZprcpGiqpQA": {"review_count": 30, "name": "Sticklers", "longitude": -112.0776917, "full_address": "30 N 3rd Ave\nPhoenix, AZ 85003", "stars": 4.0, "latitude": 33.4485585}, "jFoLuxZFScgt5ZXNPTIOhg": {"review_count": 34, "name": "Fusion Sushi & China Bistro", "longitude": -111.886982, "full_address": "15768 N Frank Lloyd Wright Blvd\nScottsdale, AZ 85260", "stars": 4.0, "latitude": 33.6288709}, "-3xbryp44xhpN4BohxXDdQ": {"review_count": 65, "name": "The Keg Steakhouse & Bar", "longitude": -111.9746066, "full_address": "21001 N Tatum Blvd\nPhoenix, AZ 85050", "stars": 3.5, "latitude": 33.678615}, "k6Si433-EJrY4J7SZxsnjA": {"review_count": 132, "name": "Grazie Pizzeria & Wine Bar", "longitude": -111.9310456, "full_address": "6952 E Main St\nScottsdale, AZ 85251", "stars": 4.0, "latitude": 33.4931627}, "s0klhdxcAab0yEWw2Uuimw": {"review_count": 36, "name": "Tomaso's", "longitude": -112.0119734, "full_address": "3225 E Camelback Rd\nPhoenix, AZ 85018", "stars": 3.5, "latitude": 33.5097979}, "eGevCRobYnA_HSj60sEWvQ": {"review_count": 263, "name": "Pita Jungle", "longitude": -111.9184724, "full_address": "1250 E. Apache Blvd.\nTempe, AZ 85281", "stars": 4.0, "latitude": 33.4150348}, "A7Soqlerr3L8mNq3YuIqAA": {"review_count": 47, "name": "Five Guys Burgers And Fries", "longitude": -111.97993, "full_address": "4803 E Ray Rd\nPhoenix, AZ 85044", "stars": 3.5, "latitude": 33.31898}, "YEQkTCmphjr6XKPh4m93AQ": {"review_count": 112, "name": "Kyoto Japanese Restaurant", "longitude": -111.926921, "full_address": "7170 E Stetson Dr\nScottsdale, AZ 85251", "stars": 3.5, "latitude": 33.500238}, "yeLq-452CkaKw1ynn0nRNw": {"review_count": 116, "name": "Mamma Mia", "longitude": -112.0637645, "full_address": "806 E Indian School Rd\nPhoenix, AZ 85014", "stars": 4.0, "latitude": 33.4948977}, "L-uPZxooP_ziXCtRrWi8Pw": {"review_count": 172, "name": "Caf\u00e9 Monarch", "longitude": -111.931447, "full_address": "6934 E 1st Ave\nScottsdale, AZ 85251", "stars": 4.5, "latitude": 33.494205}, "BcRb2bBN9pGdV8Ef5-dKUA": {"review_count": 54, "name": "The Habit Burger Grill", "longitude": -112.063117, "full_address": "745 E Glendale Ave\nPhoenix, AZ 85014", "stars": 4.0, "latitude": 33.537943}, "gWQlTK3o29rZGlw2YLUnhA": {"review_count": 79, "name": "Tea Infusion", "longitude": -111.904946565628, "full_address": "2000 E Rio Salado Pkwy\nSte 1064\nTempe, AZ 85281", "stars": 3.5, "latitude": 33.4326053092307}, "jvvh4Q00Hq2XyIcfmAAT2A": {"review_count": 52, "name": "Five Guys Burger and Fries", "longitude": -111.9284569, "full_address": "7014-590 E Camelback Rd\nScottsdale, AZ 85251", "stars": 3.5, "latitude": 33.503323}, "qSLdUiI2edATC3KBT2zf4Q": {"review_count": 60, "name": "Narai Thai + Sushi", "longitude": -111.8956455, "full_address": "15681 N Hayden Rd\nScottsdale, AZ 85260", "stars": 4.0, "latitude": 33.6272238}, "4A628qyYpA4EhN6w6o-MYQ": {"review_count": 85, "name": "Joe's New York Pizza", "longitude": -111.9232551, "full_address": "7321 E Shoeman Ln\nScottsdale, AZ 85251", "stars": 3.5, "latitude": 33.5006293}, "wTiQXYB9fE9rcSZDsZgbtQ": {"review_count": 41, "name": "Sweet Tomatoes", "longitude": -112.0716011, "full_address": "52 East Camelback Rd.\nPhoenix, AZ 85012", "stars": 3.5, "latitude": 33.5094089}, "8T8B_xK10FuO6MBOFcVQ3w": {"review_count": 63, "name": "Culver's", "longitude": -112.0984072, "full_address": "1825 W Deer Valley Dr\nPhoenix, AZ 85027", "stars": 4.0, "latitude": 33.6836757}, "e3izESeW0BUx0s96FdSLag": {"review_count": 79, "name": "Va Bene", "longitude": -111.9810651, "full_address": "4647 E Chandler Blvd\nPhoenix, AZ 85048", "stars": 4.0, "latitude": 33.3037399}, "JOZqBKIOB8WEBAWm7v1JFA": {"review_count": 74, "name": "Acacia Cafe", "longitude": -112.0019948, "full_address": "3701 E Indian School Rd\nPhoenix, AZ 85018", "stars": 4.0, "latitude": 33.4949416}, "Pectv4bzzUVs0FQ6HQjW8g": {"review_count": 19, "name": "Firehouse Subs", "longitude": -112.2027562, "full_address": "20165 N 67th Ave.\nSte. 122B\nGlendale, AZ 85308", "stars": 4.0, "latitude": 33.6640037}, "Xh7lpLo9TxodWgV5VdWeiA": {"review_count": 43, "name": "Abacus Inn Chinese Restaurant-Arrowhead", "longitude": -112.185076, "full_address": "20329 N 59th Ave\nGlendale, AZ 85308", "stars": 3.5, "latitude": 33.671403}, "LfKPiwth-lGmCKTxlDoV9g": {"review_count": 156, "name": "NoRTH", "longitude": -111.9257312, "full_address": "15024 N Scottsdale Rd\nSte 160\nScottsdale, AZ 85254", "stars": 4.0, "latitude": 33.6247911}, "y3V2jqKmvWjyo9Mc-Ipn4g": {"review_count": 39, "name": "Pasand", "longitude": -111.908621, "full_address": "1801 E Baseline Rd\nSte 104\nTempe, AZ 85283", "stars": 3.0, "latitude": 33.3774019}, "Lbue8gqRiBPEnA7g7H1qdw": {"review_count": 100, "name": "Humble Pie", "longitude": -111.978579, "full_address": "21050 N Tatum Blvd\nPhoenix, AZ 85050", "stars": 4.0, "latitude": 33.677854}, "rbeBreN9KOWipTUQsmiQ9g": {"review_count": 37, "name": "India Grill", "longitude": -111.944983, "full_address": "325 W Elliot Rd\nSte 101\nTempe, AZ 85284", "stars": 4.0, "latitude": 33.350068}, "Yhfp_vgnh_GirZGeVhj7Gg": {"review_count": 171, "name": "Studio Movie Grill", "longitude": -111.894766598404, "full_address": "15515 N Hayden Rd\nScottsdale, AZ 85260", "stars": 3.5, "latitude": 33.6273043125159}, "MJ6_uOT55dq5ALphFqMVkw": {"review_count": 94, "name": "Lenny's Burger Shop", "longitude": -112.0734213, "full_address": "2825 N Central Ave\nPhoenix, AZ 85012", "stars": 4.0, "latitude": 33.4795408}, "rwQIBAM_kHtVl1Ks8Flexw": {"review_count": 52, "name": "Cafe Wasabi", "longitude": -111.9091205, "full_address": "3223 S McClintock Dr\nTempe, AZ 85280", "stars": 3.0, "latitude": 33.3939224}, "yOYFhiTjT-SM4spKtDk92w": {"review_count": 42, "name": "China Chan Restaurant", "longitude": -112.120516, "full_address": "10227 N Metro Pkwy E\nPhoenix, AZ 85051", "stars": 3.5, "latitude": 33.5803589}, "Ch_2Ye0w4Q9l3VeVW7VNHA": {"review_count": 53, "name": "Market Bistro", "longitude": -112.063427, "full_address": "777 E Thunderbird Rd\nSte 107\nPhoenix, AZ 85022", "stars": 4.0, "latitude": 33.607105}, "EmlgWjs1ZzZEpDjZCSPLmw": {"review_count": 167, "name": "AMC Esplanade 14", "longitude": -112.027582, "full_address": "2515 E Camelback Rd\nPhoenix, AZ 85016", "stars": 4.0, "latitude": 33.508118}, "vvA3fbps4F9nGlAEYKk_sA": {"review_count": 50, "name": "Avanti Restaurant of Distinction", "longitude": -112.0221966, "full_address": "2728 E Thomas Rd\nPhoenix, AZ 85016", "stars": 4.0, "latitude": 33.4804921}, "vxC3YTLOeGJwrnHcep63FQ": {"review_count": 6, "name": "Super Moon Buffet", "longitude": -112.0825166, "full_address": "620 W Osborn Ave\nPhoenix, AZ 85013", "stars": 2.5, "latitude": 33.4875935}, "bc-lE-wGVAsUrX-kJhtY-Q": {"review_count": 183, "name": "Don & Charlie's", "longitude": -111.919938, "full_address": "7501 E Camelback Rd\nScottsdale, AZ 85251", "stars": 4.0, "latitude": 33.501821}, "v23YpYZlCpy3fFZsOK8ShQ": {"review_count": 21, "name": "Tara Thai", "longitude": -112.071469, "full_address": "245 E Bell Rd\nSte 9\nPhoenix, AZ 85023", "stars": 4.0, "latitude": 33.639472}, "FqzgT9Y-Yu7jiWdHnGW-kQ": {"review_count": 316, "name": "The Vig", "longitude": -111.9953287, "full_address": "4041 N 40th St\nPhoenix, AZ 85018", "stars": 3.5, "latitude": 33.494459}, "gUt-pPUpOVVhaCFC8-E4yQ": {"review_count": 233, "name": "Geisha A Go Go", "longitude": -111.926703, "full_address": "7150 E 6th Ave\nScottsdale, AZ 85250", "stars": 3.5, "latitude": 33.499006}, "RGDyf8-PyzyS9Lzs9bkvgA": {"review_count": 76, "name": "Babbo Italian Eatery", "longitude": -112.0474792, "full_address": "6855 N 16th St\nPhoenix, AZ 85016", "stars": 4.0, "latitude": 33.5370761}, "NAkRjPhS4yCD5trp0dY-bQ": {"review_count": 147, "name": "Saddle Ranch Chop House", "longitude": -111.9259123, "full_address": "4321 N Scottsdale Rd\nScottsdale, AZ 85251", "stars": 3.5, "latitude": 33.4990986}, "cuMMU10KaD0cZ2WdK5XC1A": {"review_count": 12, "name": "Old Country Buffet", "longitude": -112.12561, "full_address": "9620 Metro Pkwy W\nSte 153\nPhoenix, AZ 85051", "stars": 3.5, "latitude": 33.574335}, "VY_tvNUCCXGXQeSvJl757Q": {"review_count": 219, "name": "Mellow Mushroom", "longitude": -112.1114555, "full_address": "2490 W Happy Valley Rd\nPhoenix, AZ 85085", "stars": 3.5, "latitude": 33.7129847}, "tA2DT7CGQPzgA6tTcTkXDw": {"review_count": 33, "name": "Centro Paninoteca", "longitude": -111.927321, "full_address": "7120 E Becker Ln\nScottsdale, AZ 85254", "stars": 4.0, "latitude": 33.583142}, "FI4ns6iR4ZrhoaYjITf-Mg": {"review_count": 32, "name": "Sunshine Moon Peking Pub", "longitude": -111.9302654, "full_address": "4175 N Goldwater Blvd\nScottsdale, AZ 85251", "stars": 3.5, "latitude": 33.4966128}, "YCCDMLcb7UW8G-o_HsWiiA": {"review_count": 216, "name": "Modern Steak", "longitude": -111.9296765, "full_address": "7014 E Camelback Rd\nSuite 1433\nScottsdale, AZ 85251", "stars": 4.0, "latitude": 33.5025941}, "_IaAOzGPzq3JIDKuQlAzvQ": {"review_count": 19, "name": "Delux 2 Go", "longitude": -112.0146407, "full_address": "3146 E Camelback Rd\nPhoenix, AZ 85016", "stars": 3.5, "latitude": 33.5100398}, "pwpl-rxwNRQdgqFz_-qMPg": {"review_count": 489, "name": "The Parlor", "longitude": -112.0403946, "full_address": "1916 E Camelback Rd\nPhoenix, AZ 85016", "stars": 4.0, "latitude": 33.5094461}, "XbVqzUHS3c9FhG4lI13c3Q": {"review_count": 94, "name": "Maxim Restaurant", "longitude": -112.1001451, "full_address": "3424 N 19th Ave\nPhoenix, AZ 85015", "stars": 4.0, "latitude": 33.488527}, "oXKPSI-RUqOvmuSCh_DEQQ": {"review_count": 184, "name": "Mastro's Ocean Club", "longitude": -111.9307637, "full_address": "15045 N Kierland Blvd\nScottsdale, AZ 85254", "stars": 4.0, "latitude": 33.6241241}, "HIiVx2mseVWKtx8TKfWC_A": {"review_count": 108, "name": "Duck & Decanter", "longitude": -112.0467405, "full_address": "1651 E Camelback Rd\nPhoenix, AZ 85016", "stars": 4.0, "latitude": 33.5092185}, "XGl6nL5I21Lm8XmkfnNvsw": {"review_count": 11, "name": "Karaikudi Palace", "longitude": -111.892395, "full_address": "8752 E Shea Blvd\nSte C11\nScottsdale, AZ 85260", "stars": 4.0, "latitude": 33.5824859}, "sbjb1qNUcqQomJvcgPuJCg": {"review_count": 76, "name": "Ruth's Chris Steak House", "longitude": -111.96828, "full_address": "7001 N Scottsdale Rd\nSte 290\nScottsdale, AZ 85253", "stars": 4.0, "latitude": 33.546}, "9AbyBqGWHYZC73GlyAuTrQ": {"review_count": 110, "name": "Fleming's Prime Steakhouse & Wine Bar", "longitude": -111.926350593567, "full_address": "6333 N Scottsdale Rd\nHilton Scottsdale\nScottsdale, AZ 85250", "stars": 4.5, "latitude": 33.5302696775354}, "wqIB7hUTQnCswJV4UyYyEQ": {"review_count": 63, "name": "The Capital Grille", "longitude": -111.922456, "full_address": "16489 N Scottsdale Rd\nScottsdale, AZ 85254", "stars": 3.5, "latitude": 33.636322}, "9YUe5J_cPCBo_mL7-z9HCQ": {"review_count": 181, "name": "Canteen Modern Tequila Bar", "longitude": -111.9400717, "full_address": "640 S Mill Ave\nTempe, AZ 85281", "stars": 3.5, "latitude": 33.4240504}, "0ONypOKIhttBz9IJzBE8jg": {"review_count": 67, "name": "Fleming's Prime Steakhouse & Wine Bar", "longitude": -111.9682552, "full_address": "905 N 54th St\nChandler, AZ 85226", "stars": 4.0, "latitude": 33.3184674}, "byhwHi0lhYdyY5kSpuqoaQ": {"review_count": 166, "name": "Brio Tuscan Grille", "longitude": -111.9403254, "full_address": "Scottsdale Quarter\n15301 N Scottsdale Rd\nScottsdale, AZ 85254", "stars": 3.5, "latitude": 33.6071829}, "1ggcLvWPBDWnp5MVTRnoRg": {"review_count": 61, "name": "Old Spaghetti Factory", "longitude": -111.897004, "full_address": "3155 W Chandler Blvd\nSte 9\nChandler, AZ 85226", "stars": 2.5, "latitude": 33.305675}, "250I2C80JTgVwE23IPylHQ": {"review_count": 36, "name": "Moreno's Mexican Grill", "longitude": -111.8412612, "full_address": "601 N Arizona Ave\nChandler, AZ 85225", "stars": 4.0, "latitude": 33.3135389}, "RtwOc-n_RkiUuDGaNfCsNw": {"review_count": 106, "name": "Forefathers Gourmet Cheesesteaks & Fries", "longitude": -111.9631173, "full_address": "8707 S Priest Dr\nSte 101\nTempe, AZ 85284", "stars": 4.0, "latitude": 33.3351559}, "_tkAI5Q5XQSfgbqJzDKSDQ": {"review_count": 138, "name": "Old Town Tortilla Factory Scottsdale", "longitude": -111.9320931, "full_address": "6910 E Main St\nScottsdale, AZ 85251", "stars": 3.0, "latitude": 33.4931793}, "UIGFrEcoDsw05I1UOrxdOA": {"review_count": 104, "name": "Cyclo Vietnamese Cuisine", "longitude": -111.875221, "full_address": "1919 W Chandler Blvd\nChandler, AZ 85224", "stars": 3.5, "latitude": 33.306501}, "OSL98Keoc2FSNx4a3ge5Uw": {"review_count": 90, "name": "U.S. Egg", "longitude": -111.938030184884, "full_address": "131 E Baseline Rd\nTempe, AZ 85283", "stars": 4.0, "latitude": 33.3779965056747}, "mzbQCUmd135tsNW6hY3G6A": {"review_count": 42, "name": "Chen & Wok", "longitude": -112.06466, "full_address": "6505 N 7th St\nPhoenix, AZ 85014", "stars": 3.0, "latitude": 33.531328}, "T5HYqRADhAL6VPRAacz74Q": {"review_count": 36, "name": "Niccoli's Deli & Pizza", "longitude": -112.048124, "full_address": "6102 N 16th St\nPhoenix, AZ 85016", "stars": 4.5, "latitude": 33.525861}, "1_siFXaQbxck3tiKRwnq7Q": {"review_count": 81, "name": "AZ Bread Company", "longitude": -111.9443510501, "full_address": "315 W Elliot Rd\nSte 107\nTempe, AZ 85284", "stars": 4.0, "latitude": 33.348763010086}, "Vn8qcaX64fkl8vByCsSvIg": {"review_count": 114, "name": "Wandering Horse Buffet", "longitude": -111.869723796844, "full_address": "Inside Talking Stick Resort\n9800 E Indian Bend Rd\nScottsdale, AZ 85256", "stars": 4.0, "latitude": 33.5409028386777}, "tdeHd2AVYlEnz9F1UGb84Q": {"review_count": 130, "name": "Cafe ZuZu", "longitude": -111.933566, "full_address": "Hotel Valley Ho\n6850 E Main St\nScottsdale, AZ 85251", "stars": 4.0, "latitude": 33.492914}, "_ql42UadWUh9SgU09_c2mQ": {"review_count": 26, "name": "Pei Wei Asian Diner", "longitude": -111.925924, "full_address": "8787 N Scottsdale Rd\nParadise Valley, AZ 85253", "stars": 3.5, "latitude": 33.5671501}, "-tNKk-eCLk_acdp4vEYcpw": {"review_count": 23, "name": "Golden Corral Steak & Buffet House", "longitude": -112.181592, "full_address": "5679 W Northern Ave\nGlendale, AZ 85301", "stars": 3.0, "latitude": 33.552624}, "jGldmslgIegQNM5kvb851Q": {"review_count": 123, "name": "Maggiano's Little Italy", "longitude": -111.924248, "full_address": "16405 N Scottsdale Ave\nScottsdale, AZ 85254", "stars": 3.5, "latitude": 33.63606}, "ykfL94V9KLT86s_tTzxwZQ": {"review_count": 42, "name": "Pei Wei Asian Diner", "longitude": -111.9100618, "full_address": "1825 E Guadalupe Road\nTempe, AZ 85283", "stars": 3.5, "latitude": 33.3637707}, "cp39VURFby4A6u9m2It8jg": {"review_count": 305, "name": "Zinburger", "longitude": -112.0275918, "full_address": "2502 E Camelback Rd\nSte 127\nPhoenix, AZ 85016", "stars": 3.5, "latitude": 33.5095354}, "_RBUU1y4yJrK0SPAd8z0-w": {"review_count": 98, "name": "Indian Delhi Palace", "longitude": -111.9718284, "full_address": "5104 E McDowell Rd\nPhoenix, AZ 85008", "stars": 3.5, "latitude": 33.4657562}, "rrWhi2TL0smrbihvavZxcg": {"review_count": 66, "name": "Times Square Pizzeria", "longitude": -112.1161771, "full_address": "2602 W Deer Valley Rd\nPhoenix, AZ 85027", "stars": 4.0, "latitude": 33.6839876}, "4sW8Z6NLXLRkruSKSKUEUw": {"review_count": 93, "name": "Hob Nobs Cafe & Spirits", "longitude": -112.078017, "full_address": "149 W McDowell Rd\nPhoenix, AZ 85003", "stars": 3.5, "latitude": 33.465462}, "FG_GRMLSj68ximzfrr9eWw": {"review_count": 88, "name": "Macayo's Depot Cantina", "longitude": -111.943236, "full_address": "300 S Ash Ave\nTempe, AZ 85281", "stars": 2.5, "latitude": 33.427732}, "cgNIBHS2mLdbTRiodAT6EQ": {"review_count": 52, "name": "Tacos De Juarez", "longitude": -112.0650431, "full_address": "1017 N 7th St\nPhoenix, AZ 85006", "stars": 4.0, "latitude": 33.4594331}, "7U8TYNW4Mvx6m3zexsO0sg": {"review_count": 72, "name": "Stockyards Restaurant", "longitude": -111.97493461419, "full_address": "5009 E Washington St\nSte 115\nPhoenix, AZ 85034", "stars": 4.0, "latitude": 33.446195133741}, "3Q7vtF_cdHGyp2JOlKcu-Q": {"review_count": 53, "name": "In-N-Out Burger", "longitude": -111.963831, "full_address": "7050 W Ray Rd\nChandler, AZ 85225", "stars": 4.0, "latitude": 33.32041}, "ChmqODwuYP1ewjmWXtxtsg": {"review_count": 75, "name": "Nee House Chinese Resturant", "longitude": -111.9778065, "full_address": "13843 N Tatum Boulevard\nSuite 15\nPhoenix, AZ 85032", "stars": 3.5, "latitude": 33.6128816}, "Bjt3rB73dvSDe1XEPEWc6w": {"review_count": 141, "name": "Sakana Sushi & Grill", "longitude": -111.9085143, "full_address": "6989 N Hayden Rd\nSte A12\nScottsdale, AZ 85250", "stars": 4.0, "latitude": 33.5381018}, "MEOC6ng0jPhQOX_BzEzf_w": {"review_count": 79, "name": "Aunt Chilada's Tempe", "longitude": -111.9709188, "full_address": "Arizona Grand Resort\n2021 W Baseline Rd\nTempe, AZ 85283", "stars": 2.5, "latitude": 33.3777355}, "NBwPgX7L2D-EZedgo3A-pw": {"review_count": 26, "name": "Gil's Taste of Taos", "longitude": -112.047055, "full_address": "1601 E Bell Rd\nSte A-8\nPhoenix, AZ 85022", "stars": 3.5, "latitude": 33.639747}, "QnAzW6KMSciUcuJ20oI3Bw": {"review_count": 525, "name": "Joe's Farm Grill", "longitude": -111.723918914795, "full_address": "3000 E Ray Rd\nBldg 1\nGilbert, AZ 85296", "stars": 4.0, "latitude": 33.321061644794}, "LbLVO7yqAJGEQ1nK6rEvHA": {"review_count": 63, "name": "Siu Wok", "longitude": -112.073196, "full_address": "3815 N Central Ave\n#A\nPhoenix, AZ 85012", "stars": 3.5, "latitude": 33.491645}, "DlCtdbceo4YNSI53cCL2lg": {"review_count": 126, "name": "The Old Spaghetti Factory", "longitude": -112.0741442, "full_address": "1418 N Central Ave\nPhoenix, AZ 85004", "stars": 3.0, "latitude": 33.4642695}, "wCi6nBXnXf5PAHqJZP9dqA": {"review_count": 33, "name": "Fiorella's", "longitude": -112.200326, "full_address": "6525 W Happy Valley Rd\nPhoenix, AZ 85310", "stars": 3.5, "latitude": 33.710985}, "G9LwkTSdKOyOGqd5BbuIkA": {"review_count": 155, "name": "Aunt Chilada's", "longitude": -112.043169, "full_address": "7330 N Dreamy Draw Dr\nPhoenix, AZ 85020", "stars": 3.5, "latitude": 33.545329}, "y75baZnoI51J8WS7NK9FHQ": {"review_count": 110, "name": "Floridino's Pizza & Pasta", "longitude": -111.8597433, "full_address": "590 N Alma School Rd\nSte 35\nChandler, AZ 85224", "stars": 4.0, "latitude": 33.3118314}, "XJc9Ueb3avGpYaj5Ll92hg": {"review_count": 13, "name": "Five Guys Burgers And Fries", "longitude": -112.082405090332, "full_address": "1515 N 7th Ave\nPhoenix, AZ 85003", "stars": 4.0, "latitude": 33.465503692627}, "wT0L6ZyFjq3CQKYqENvC3g": {"review_count": 39, "name": "Genghis Grill", "longitude": -111.9793285, "full_address": "4722 E Cactus Rd\nPhoenix, AZ 85032", "stars": 3.0, "latitude": 33.5984163}, "IVc23uY-36WUNYoIbz42Fg": {"review_count": 343, "name": "Switch Restaurant & Wine Bar", "longitude": -112.073629, "full_address": "2603 N Central Ave\nPhoenix, AZ 85004", "stars": 4.0, "latitude": 33.4770236}, "0NhcabzEyeCIMsNCPOX-MQ": {"review_count": 32, "name": "Jimmy John's", "longitude": -111.9286939, "full_address": "5128 Rural Rd\nTempe, AZ 85282", "stars": 3.0, "latitude": 33.3785219}, "vSWEXsXmJw5ozuF4zqE9ng": {"review_count": 140, "name": "My Florist Cafe", "longitude": -112.081655, "full_address": "530 W McDowell Rd\nPhoenix, AZ 85003", "stars": 3.0, "latitude": 33.466104}, "9ziO3NpoNTKHvIKCBFB_fQ": {"review_count": 171, "name": "District American Kitchen and Wine Bar", "longitude": -112.0701057, "full_address": "320 N 3rd St\nPhoenix, AZ 85004", "stars": 3.5, "latitude": 33.4514309}, "xz1fQwwVAhqA9MsmMaGyZA": {"review_count": 51, "name": "Taberna Mexicana", "longitude": -111.9245481, "full_address": "7001 N Scottsdale Rd\nScottsdale, AZ 85258", "stars": 4.0, "latitude": 33.5394273}, "0AZiq_OMKs3I9lTmwd5PSg": {"review_count": 39, "name": "Tommy V's Osteria and Pizzeria", "longitude": -112.0124898, "full_address": "3223 E Camelback Rd\nPhoenix, AZ 85018", "stars": 3.5, "latitude": 33.5096719}, "rDvz5jX65gpfONFu7er9Tw": {"review_count": 224, "name": "Los Taquitos", "longitude": -111.9819, "full_address": "4747 E Elliot Rd\nSte 17\nPhoenix, AZ 85044", "stars": 4.0, "latitude": 33.348162}, "_YswYrpv6YdO3R3CP8R8oQ": {"review_count": 40, "name": "Morton's The Steakhouse", "longitude": -111.9263251, "full_address": "15233 N. Kierland Boulevard\nScottsdale, AZ 85254", "stars": 3.0, "latitude": 33.625473}, "dcd3C1gWv-vVdQ9XYV8Ubw": {"review_count": 287, "name": "Grimaldi's Pizzeria", "longitude": -111.9268138, "full_address": "4000 N Scottsdale Rd\nScottsdale, AZ 85251", "stars": 4.0, "latitude": 33.4938414}, "sI-2c9HZ0RjZX1OU-5DW0A": {"review_count": 34, "name": "Hayashi Hibachi", "longitude": -112.358704, "full_address": "1480 N Litchfield Rd\nGoodyear, AZ 85395", "stars": 3.0, "latitude": 33.463063}, "YldXB1hRpnE1CWLF3mvgpQ": {"review_count": 119, "name": "Spinato's Pizza", "longitude": -112.055160999298, "full_address": "1219 E Glendale Ave\nSte 14\nPhoenix, AZ 85020", "stars": 4.5, "latitude": 33.5378713137466}, "WYk91WPklqRWuk9z9DsPDw": {"review_count": 59, "name": "Vitamin T", "longitude": -112.0737845, "full_address": "1 E Washington St\nSte 175\nPhoenix, AZ 85004", "stars": 3.0, "latitude": 33.4482331}, "MLcXtnpzygZvQ9BtseLLlw": {"review_count": 136, "name": "Farm At South Mountain", "longitude": -112.012504, "full_address": "6106 S 32nd St\nPhoenix, AZ 85042", "stars": 4.0, "latitude": 33.390792}, "ioGIaoswvbbeY8P965IYRA": {"review_count": 82, "name": "Oregano's Pizza Bistro", "longitude": -111.87501022136, "full_address": "1130 S Dobson Rd\nMesa, AZ 85202", "stars": 4.0, "latitude": 33.394030718551}, "CycfCC0OLvTjG3Eks8D1og": {"review_count": 75, "name": "P.F. Chang's China Bistro", "longitude": -111.9276185, "full_address": "7135 E Camelback Rd\nSte 101\nThe Waterfront\nScottsdale, AZ 85251", "stars": 3.5, "latitude": 33.5019817}, "iDYzGVIF1TDWdjHNgNjCVw": {"review_count": 149, "name": "Los Sombreros Mexican Food & Cocktails", "longitude": -111.9265203, "full_address": "2534 N Scottsdale Rd\nScottsdale, AZ 85257", "stars": 3.5, "latitude": 33.4765807}, "cBpJIOrVXotDI0XAZH_k0g": {"review_count": 200, "name": "Yard House", "longitude": -112.2618153, "full_address": "9401 W Westgate Blvd\nGlendale, AZ 85305", "stars": 4.0, "latitude": 33.534203}, "Shn1EcWqqjRlDp-92D43gA": {"review_count": 18, "name": "Philly Steak & Wings", "longitude": -111.8622138, "full_address": "1450 W Southern Ave\nMesa, AZ 85202", "stars": 4.0, "latitude": 33.3932472}, "fmWyI5ec05F8PJpx3eNpLg": {"review_count": 55, "name": "Arrivederci", "longitude": -111.927561, "full_address": "7101 E Thunderbird Rd\nScottsdale, AZ 85254", "stars": 4.0, "latitude": 33.610963}, "gFJtzwGmDTABRwL2F8GsSw": {"review_count": 58, "name": "Del Frisco's Grille", "longitude": -112.0283059, "full_address": "2425 E Camelback Rd\nSte 110\nPhoenix, AZ 85016", "stars": 3.5, "latitude": 33.5091313}, "aozcOaCMwOHG8s-lbZ6_gA": {"review_count": 53, "name": "Flamingo Palace", "longitude": -112.0677151, "full_address": "350 E Bell Rd\nSte 3\nPhoenix, AZ 85022", "stars": 3.5, "latitude": 33.6404484}, "cpfqZ_968LCuIyHJ3X46NQ": {"review_count": 7, "name": "China City Super Buffet", "longitude": -112.173696, "full_address": "5301 W Indian School Rd\nPhoenix, AZ 85031", "stars": 3.0, "latitude": 33.494229}, "9HwUkbKAv7dO3MGlkkJJSg": {"review_count": 45, "name": "Cartwright's Sonoran Ranch House", "longitude": -111.936832, "full_address": "6710 E Cave Creek Rd\nCave Creek, AZ 85331", "stars": 4.0, "latitude": 33.8337069}, "DBoebGeuz91QAP3tSFYs6w": {"review_count": 41, "name": "Capriotti's Sandwich Shop", "longitude": -111.755389, "full_address": "3510 E Baseline Rd\nSte 101\nMesa, AZ 85204", "stars": 4.0, "latitude": 33.379624}, "H-99nG_KfynWPXh84TKj8A": {"review_count": 31, "name": "Copper Kettle-Salads Balti & Taandoori Grill", "longitude": -111.8761389, "full_address": "1941 W Guadalupe Rd\nSte 102\nMesa, AZ 85202", "stars": 3.5, "latitude": 33.362719}, "BM0-dgPJMBMmcmO9PVCJfQ": {"review_count": 77, "name": "Los Compadres Mexican Food", "longitude": -112.0824532, "full_address": "4414 N 7th Ave\nPhoenix, AZ 85013", "stars": 4.0, "latitude": 33.5008018}, "1_43FZHx3P5D7X-CpIR9WA": {"review_count": 31, "name": "Jersey Mike's Subs", "longitude": -112.111808, "full_address": "2501 W Happy Valley Rd\nPhoenix, AZ 85027", "stars": 4.0, "latitude": 33.7121}, "F8q_9PUl-Lwjj9xIRPArcg": {"review_count": 157, "name": "Rocket Burger & Subs", "longitude": -112.134443, "full_address": "12038 N 35th Ave\nPhoenix, AZ 85029", "stars": 4.5, "latitude": 33.595881}, "jzPMl-NoB5F2fwoHX3hN8A": {"review_count": 81, "name": "Macayo's Mexican Kitchen", "longitude": -112.073346, "full_address": "4001 N Central Ave\nPhoenix, AZ 85012", "stars": 3.0, "latitude": 33.492722}, "iE1eq7kDacRwgvFZJmjfgw": {"review_count": 37, "name": "Jimmy John's", "longitude": -112.225396, "full_address": "7708 W Bell Rd\nSte 105\nGlendale, AZ 85308", "stars": 3.0, "latitude": 33.638776}, "Um5VnQXli9IwplV2rmgggg": {"review_count": 20, "name": "Souper Salad", "longitude": -111.9867129, "full_address": "2651 N 44th Street\nPhoenix, AZ 85008", "stars": 3.5, "latitude": 33.4783911}, "pSiR8m18iick2D7TFdmb-Q": {"review_count": 57, "name": "Wong's Place", "longitude": -111.906522, "full_address": "1825 E Baseline Rd\nTempe, AZ 85283", "stars": 3.5, "latitude": 33.3783016}, "iRg16D8dWjmv70NF68kgRA": {"review_count": 46, "name": "Crudo", "longitude": -111.929344, "full_address": "7045 E 3rd Ave\nScottsdale, AZ 85251", "stars": 4.0, "latitude": 33.4961}, "ObnZiF99lqggVasgyGBtVA": {"review_count": 189, "name": "Stax Burger Bistro", "longitude": -111.9264093, "full_address": "4400 N Scottsdale Rd\nScottsdale, AZ 85251", "stars": 3.5, "latitude": 33.500545}, "azLb_kP6VHKSF0dMTfc3rA": {"review_count": 33, "name": "Jersey Mike's Subs", "longitude": -111.983383, "full_address": "4550 E Bell Rd\nSte 194\nPhoenix, AZ 85032", "stars": 3.5, "latitude": 33.641426}}]